OBJECTID_1 *,Shape *,StateStructureId,BridgeNumber,BridgeName,FacilitiesCarried,FeaturesIntersected,Owner,Custodian,CityName,CountyName,RegionName,Latitude,Longitude,ParallelStructure,HistoricSignificanceNRHP,HistoricalSignificanceHAER,HistoricSignificanceLocal,YearBuilt,YearRebuilt,StructureLengthByFeet,MaximumSpanLengthFeet,ScreeningLengthBy10th,LanesOn,CurbToCurbWidthFeetAnd10th,OutToOutWidthFeetAnd10th,SidewalkCurbWidthLeftBy10th,SidewalkCurbWidthRightBy10th,MinVertClrncOverDeck,MinVertClrncUnderBridge,MainSpanDesign,MainSpanMaterial,ApproachSpanDesign,ApproachSpanMaterial,SpanType,NumberOfSpans,ServiceOn,ServiceUnder,DesignLoadCode,OpenClosedPosted,OnUnderCode,FederalHighwayClass,ServiceLevel,RouteIdentifier,StateRouteMilepost,AheadBackIndicator,InventoryDirection,Detour,BaseHighwayNetwork,NationalTruckNetwork,STRAHNET,FederalLandsHighway,DeckCondition,SuperstructureCondition,SubstructureCondition,BridgeOverallConditionState,CulvertCondition,ScourCondition,NumberOfUtilites,InspectionFrequency,InspectionDate,InspectionDueDate,PrpsedImprvTypeOfWork,PrpsedImprvWorkMethod,PrpsedImprvStructureLgthByFT,PrpsedImprvRoadwayWdthByFT,PrpsedImprvCostPerSFDeck,PrpsedImprvStructureCost,PrpsedImprvRoadwayCost,PrpsedImprvEngMiscCost,PrpsedImprvTotalCost,PrpsedImprvEstimateYear,TunnelPortalShape,TunnelShape,TunnelLengthByFeet,TunnelGroundConditions,TunnelNumberOfBores,TunnelServiceLevel,TunnelOtherRestriction,TunnelHazardousMatRest,TunnelHeightRestrictionFlag,TunnelMinVertClrncOverRdBy10,TunnelComplexCode,updated_date,Structure ID,ObjectID,Min Need Year
1,Point,000000BA,125/31.25,BROWN RD CREEK,SR 125,BROWN ROAD CREEK,Washington State,Washington State,UNINCORPORATED,Walla Walla County,SC,46.235527,-118.37114,N,5,<Null>,<Null>,1900,0,16,14,<Null>,2,31,31.5,0,0,9999,0,2,1,0,0,CESB CS,1,1,5,0,A,1,3,1,125,18.97,<Null>,B,9,0,N,0,0,7,6,6,Fair,9,3,1,<Null>,<Null>,<Null>,35,1,16,33,475,126,25,100,251,2022,<Null>,<Null>,<Null>,<Null>,<Null>,<Null>,<Null>,<Null>,<Null>,<Null>,<Null>,10/16/2023 3:33,000000BA,618,2024
2,Point,000000BE,142/13.25,SPRING CREEK,SR 142,SPRING CREEK,Washington State,Washington State,UNINCORPORATED,Klickitat County,SW,45.830139,-120.905609,N,5,<Null>,<Null>,1950,0,22,20,19,2,23.5,24,0,0,9999,0,2,3,0,0,SRB,1,1,5,0,A,1,3,1,142,29.92,<Null>,B,6,0,N,0,0,5,7,5,Fair,9,3,0,<Null>,<Null>,<Null>,35,1,22,28,475,146,29,117,293,2022,<Null>,<Null>,<Null>,<Null>,<Null>,<Null>,<Null>,<Null>,<Null>,<Null>,<Null>,10/16/2023 3:33,000000BE,286,2024
3,Point,000000BG,161/3,OHOP CREEK,SR 161,OHOP CREEK,Washington State,Washington State,EATONVILLE,Pierce County,OL,46.876419,-122.281746,N,5,<Null>,<Null>,1900,0,56,45,51,2,30,32,0,0,9999,0,4,2,0,0,CTB,1,1,5,2,A,1,3,1,161,4.27,<Null>,B,3,1,Y,0,0,6,7,6,Fair,9,3,2,24,9/30/2021,9/30/2023,35,1,56,33,400,370,74,296,739,2014,<Null>,<Null>,<Null>,<Null>,<Null>,<Null>,<Null>,<Null>,<Null>,<Null>,<Null>,10/16/2023 3:33,000000BG,682,2024
4,Point,000000BI,195/24,S FK PALOUSE R CT HOUSE,US 195,S FK PALOUSE RIVER,Washington State,Washington State,COLFAX,Whitman County,EA,46.883999,-117.364532,N,5,<Null>,<Null>,1923,0,228,114,99.9,4,56,80,10,10,9999,0,4,2,0,0,CTB,2,5,5,0,A,1,2,1,195,38.09,<Null>,B,8,1,Y,0,0,6,4,6,Poor,9,8,0,24,7/19/2022,7/19/2024,35,1,228,58,475,3140,628,2512,6281,2022,<Null>,<Null>,<Null>,<Null>,<Null>,<Null>,<Null>,<Null>,<Null>,<Null>,<Null>,10/16/2023 3:33,000000BI,50,2024
5,Point,000000BK,203/12,CREEK,SR 203,CREEK,Washington State,Washington State,UNINCORPORATED,King County,NW,47.606335,-121.913918,N,5,<Null>,<Null>,1945,0,52,16,47,2,30,30.4,0,0,9999,0,2,7,0,0,TTC,3,1,5,0,A,1,3,1,203,3,<Null>,B,12,1,Y,0,0,6,7,6,Fair,9,U,0,24,7/18/2023,7/18/2025,35,1,52,34,475,420,84,336,840,2022,<Null>,<Null>,<Null>,<Null>,<Null>,<Null>,<Null>,<Null>,<Null>,<Null>,<Null>,10/16/2023 3:33,000000BK,848,2024
6,Point,000000BL,203/20,HARRIS CREEK,SR 203,HARRIS CREEK,Washington State,Washington State,UNINCORPORATED,King County,NW,47.678055,-121.907333,N,5,<Null>,<Null>,1945,0,58,20,53,2,29.7,30.2,0,0,9999,0,2,7,0,0,TTC,3,1,5,0,A,1,3,1,203,8.12,<Null>,B,13,1,Y,0,0,7,6,7,Fair,9,U,1,24,7/18/2023,7/18/2025,35,1,58,30,475,413,83,330,826,2022,<Null>,<Null>,<Null>,<Null>,<Null>,<Null>,<Null>,<Null>,<Null>,<Null>,<Null>,10/16/2023 3:33,000000BL,850,2024
7,Point,000000CN,508/14,KEARNEY CREEK,SR 508,KEARNEY CREEK,Washington State,Washington State,UNINCORPORATED,Lewis County,SW,46.610634,-122.581718,N,5,<Null>,<Null>,1937,0,32,16,30.8,2,21.6,22.6,0,0,9999,0,2,7,0,0,TTC,2,1,5,0,A,1,3,1,508,15.97,<Null>,B,14,0,N,0,0,7,7,6,Fair,9,U,0,24,3/2/2023,3/2/2025,35,1,32,29,475,220,44,176,441,2022,<Null>,<Null>,<Null>,<Null>,<Null>,<Null>,<Null>,<Null>,<Null>,<Null>,<Null>,10/16/2023 3:33,000000CN,1316,2024
8,Point,000000CO,508/16,MILL CREEK,SR 508,MILL CREEK,Washington State,Washington State,UNINCORPORATED,Lewis County,SW,46.604591,-122.534195,N,5,<Null>,<Null>,1937,0,32,16,31.5,2,21.7,21.7,0,0,9999,0,2,7,0,0,TTC,2,1,5,0,A,1,3,1,508,18.32,<Null>,B,35,0,N,0,0,6,7,6,Fair,9,U,0,24,3/1/2023,3/1/2025,35,1,32,26,475,198,40,158,395,2022,<Null>,<Null>,<Null>,<Null>,<Null>,<Null>,<Null>,<Null>,<Null>,<Null>,<Null>,10/16/2023 3:33,000000CO,1317,2024
9,Point,000000CQ,508/23,ALDER CREEK,SR 508,ALDER CREEK,Washington State,Washington State,UNINCORPORATED,Lewis County,SW,46.604279,-122.45108,N,5,<Null>,<Null>,1937,0,88,29,83,2,19.6,21,0,0,9999,0,2,7,0,0,TTC,3,1,5,0,A,1,3,1,508,22.65,<Null>,B,35,0,N,0,0,6,6,5,Fair,9,3,1,24,2/17/2022,2/17/2024,35,1,88,23,475,480,96,384,961,2022,<Null>,<Null>,<Null>,<Null>,<Null>,<Null>,<Null>,<Null>,<Null>,<Null>,<Null>,10/16/2023 3:33,000000CQ,1320,2024
10,Point,000000CR,508/26.25,CREEK,SR 508,CREEK,Washington State,Washington State,UNINCORPORATED,Lewis County,SW,46.588306,-122.425552,N,5,<Null>,<Null>,1941,0,20,18,17.9,2,20.3,21.5,0,0,9999,0,2,7,0,0,TTC,1,1,5,0,A,1,3,1,508,24.36,<Null>,B,35,0,N,0,0,7,6,6,Fair,9,3,0,<Null>,<Null>,<Null>,35,1,20,29,400,116,23,93,232,2014,<Null>,<Null>,<Null>,<Null>,<Null>,<Null>,<Null>,<Null>,<Null>,<Null>,<Null>,10/16/2023 3:33,000000CR,1321,2024
11,Point,000000CY,706/3.25,RELIEF CROSSING,SR 706,RELIEF CHANNEL,Washington State,Washington State,UNINCORPORATED,Pierce County,OL,46.757351,-122.139664,N,5,<Null>,<Null>,1900,1961,12,10,<Null>,2,33.3,33.5,0,0,9999,0,1,1,0,0,CS,1,1,5,0,A,1,3,1,706,2.55,<Null>,B,89,1,Y,0,0,7,8,7,Good,9,8,0,<Null>,<Null>,<Null>,35,1,12,36,475,102,20,82,205,2022,<Null>,<Null>,<Null>,<Null>,<Null>,<Null>,<Null>,<Null>,<Null>,<Null>,<Null>,10/16/2023 3:33,000000CY,1439,2024
12,Point,000000CZ,706/10.25,TENAS CREEK,SR 706,TENAS CR,Washington State,Washington State,UNINCORPORATED,Pierce County,OL,46.747101,-121.924828,N,5,<Null>,<Null>,1900,0,22,18,18,2,23.8,26.4,0,0,9999,0,4,1,0,0,CTB,1,1,5,0,A,1,3,1,706,13.09,<Null>,B,27,1,Y,0,0,7,6,6,Fair,9,5,1,<Null>,<Null>,<Null>,35,1,22,28,475,146,29,117,293,2022,<Null>,<Null>,<Null>,<Null>,<Null>,<Null>,<Null>,<Null>,<Null>,<Null>,<Null>,10/16/2023 3:33,000000CZ,1438,2024
13,Point,000000DA,821/105.25,BURBANK CREEK,SR 821,BURBANK CR,Washington State,Washington State,UNINCORPORATED,Kittitas County,SC,46.768497,-120.448997,N,5,<Null>,<Null>,1923,1948,18,16,<Null>,2,40.3,54,0,0,9999,0,1,1,0,0,CS,1,1,5,0,A,1,3,1,821,7.65,<Null>,B,52,0,N,0,0,7,7,6,Fair,9,U,0,<Null>,<Null>,<Null>,35,1,18,32,475,137,27,110,274,2022,<Null>,<Null>,<Null>,<Null>,<Null>,<Null>,<Null>,<Null>,<Null>,<Null>,<Null>,10/16/2023 3:33,000000DA,1475,2024
14,Point,000000DX, 12/702.25,IRRIGATION DITCH,US 12,IRRIGATION DITCH,Washington State,Washington State,UNINCORPORATED,Columbia County,SC,46.286667,-118.106003,N,5,<Null>,<Null>,1900,1926,21,19,19,2,31,33,0,0,9999,0,1,1,0,0,CS,1,1,5,0,A,1,2,1,12,360.28,<Null>,B,9,1,Y,0,0,7,6,7,Fair,9,5,0,<Null>,<Null>,<Null>,35,1,21,40,475,200,40,160,399,2022,<Null>,<Null>,<Null>,<Null>,<Null>,<Null>,<Null>,<Null>,<Null>,<Null>,<Null>,10/16/2023 3:33,000000DX,603,2024
15,Point,000000EE,112/15,CREEK,SR 112,CREEK,Washington State,Washington State,UNINCORPORATED,Clallam County,OL,48.253132,-124.266075,N,5,<Null>,<Null>,1936,0,59,19,54,2,25,29.5,4,0.5,9999,0,2,7,0,0,TTC,3,5,5,0,A,1,3,1,112,16.5,<Null>,B,99,0,N,0,0,7,7,7,Good,9,3,1,24,8/23/2022,8/23/2024,35,1,59,30,475,420,84,336,841,2022,<Null>,<Null>,<Null>,<Null>,<Null>,<Null>,<Null>,<Null>,<Null>,<Null>,<Null>,10/16/2023 3:33,000000EE,527,2024
16,Point,000000ER,271/3.35,BRANCH of McCOY CREEK,SR 271,BRANCH OF MCCOY CREEK,Washington State,Washington State,UNINCORPORATED,Whitman County,EA,47.162666,-117.270195,N,5,<Null>,<Null>,1900,0,15,12,<Null>,2,23.3,25.4,0,0,9999,0,2,3,0,0,CESB,1,1,5,0,A,1,3,1,271,2.36,<Null>,B,6,0,N,0,0,6,6,6,Fair,9,U,0,<Null>,<Null>,<Null>,35,1,15,28,475,100,20,80,200,2022,<Null>,<Null>,<Null>,<Null>,<Null>,<Null>,<Null>,<Null>,<Null>,<Null>,<Null>,10/16/2023 3:33,000000ER,949,2024
17,Point,000000ES,395/616,DEER CR,US 395,EAST DEER CR,Washington State,Washington State,UNINCORPORATED,Ferry County,EA,48.848331,-118.200058,N,5,<Null>,<Null>,1900,1932,49,13,44,2,25.2,39.5,0,0,9999,0,2,4,1,1,CESB CS,2,1,5,2,A,1,2,1,395,258.98,<Null>,B,16,1,Y,0,2,7,6,6,Fair,9,3,2,24,8/22/2022,8/22/2024,35,1,49,27,475,314,63,251,628,2022,<Null>,<Null>,<Null>,<Null>,<Null>,<Null>,<Null>,<Null>,<Null>,<Null>,<Null>,10/16/2023 3:33,000000ES,1001,2024
18,Point,000000ET,395/618,LITTLE BOULDER CR,US 395,LITTLE BOULDER CR,Washington State,Washington State,UNINCORPORATED,Ferry County,EA,48.911388,-118.205498,N,5,<Null>,<Null>,1900,1932,57,17,52,2,25.2,41.5,0,0,9999,0,2,4,1,1,CESB CS,2,1,5,2,A,1,2,1,395,263.73,<Null>,B,4,1,Y,0,2,7,6,6,Fair,9,3,0,24,8/22/2022,8/22/2024,35,1,57,27,475,366,73,292,731,2022,<Null>,<Null>,<Null>,<Null>,<Null>,<Null>,<Null>,<Null>,<Null>,<Null>,<Null>,10/16/2023 3:33,000000ET,1002,2024
19,Point,000000FV,500/18,CANAL,SR 500,HJF CANAL,Washington State,Washington State,CAMAS,Clark County,SW,45.589779,-122.403053,N,5,<Null>,<Null>,1915,1937,25,23,<Null>,2,37,50,6,5,9999,0,4,1,0,0,CTB,1,5,5,0,A,1,3,1,500,18.92,<Null>,B,10,0,N,0,0,4,7,6,Poor,9,8,1,24,4/5/2022,4/5/2024,35,1,25,39,475,232,46,185,463,2022,<Null>,<Null>,<Null>,<Null>,<Null>,<Null>,<Null>,<Null>,<Null>,<Null>,<Null>,10/16/2023 3:33,000000FV,27,2024
20,Point,000000GR,195/22,SPRING FLAT CREEK,US 195,SPRING FLAT CREEK,Washington State,Washington State,COLFAX,Whitman County,EA,46.874611,-117.364998,N,5,<Null>,<Null>,1920,0,37,37,32,4,56,80,13,11,9999,0,4,1,0,0,CTB,1,5,5,0,A,1,2,1,195,37.46,<Null>,B,8,1,Y,0,0,3,6,7,Poor,9,8,3,24,7/19/2022,7/19/2024,35,1,37,58,475,510,102,408,1019,2022,<Null>,<Null>,<Null>,<Null>,<Null>,<Null>,<Null>,<Null>,<Null>,<Null>,<Null>,10/16/2023 3:33,000000GR,49,2024
21,Point,000000HA,706/8,COPPER CR,SR 706,COPPER CR,Washington State,Washington State,UNINCORPORATED,Pierce County,OL,46.755306,-121.961441,N,5,<Null>,<Null>,1922,0,26,22,22,2,25,27,0,0,9999,0,4,1,0,0,CTB,1,1,5,4,A,1,3,1,706,11.16,<Null>,B,27,1,Y,0,0,7,6,6,Fair,9,3,0,24,4/27/2023,4/27/2025,35,1,26,28,475,173,35,138,346,2022,<Null>,<Null>,<Null>,<Null>,<Null>,<Null>,<Null>,<Null>,<Null>,<Null>,<Null>,10/16/2023 3:33,000000HA,1440,2024
22,Point,000000HM,  6/15.25,PINNOCK CREEK,SR 6,PINNOCK CREEK,Washington State,Washington State,UNINCORPORATED,Pacific County,SW,46.553696,-123.534225,N,5,<Null>,<Null>,1927,0,19,16,15.9,2,27,28.5,0,0,9999,0,1,1,0,0,CS,1,1,5,0,A,1,3,1,6,15.45,<Null>,B,99,1,Y,0,0,7,7,7,Good,9,3,2,<Null>,<Null>,<Null>,35,1,19,34,475,154,31,123,307,2022,<Null>,<Null>,<Null>,<Null>,<Null>,<Null>,<Null>,<Null>,<Null>,<Null>,<Null>,10/16/2023 3:33,000000HM,1424,2024
23,Point,000000HN, 21/323,SAN POIL RIVER,SR 21,SAN POIL RIVER,Washington State,Washington State,UNINCORPORATED,Ferry County,EA,48.483334,-118.737663,N,5,<Null>,<Null>,1927,0,61,30,56,2,20,23.5,0,0,9999,0,4,1,0,0,CTB,2,1,5,0,A,1,3,1,21,148.45,<Null>,B,60,0,Y,0,1,7,7,6,Fair,9,7,0,24,8/22/2022,8/22/2024,35,1,61,28,475,406,81,324,811,2022,<Null>,<Null>,<Null>,<Null>,<Null>,<Null>,<Null>,<Null>,<Null>,<Null>,<Null>,10/16/2023 3:33,000000HN,886,2024
24,Point,000000HV,507/8,SKOOKUMCHUCK RIVER,SR 507,SKOOKUMCHUCK RIVER,Washington State,Washington State,CENTRALIA,Lewis County,SW,46.730423,-122.95369,N,3,<Null>,<Null>,1928,0,186,149,99.9,2,20,22,5,5,1408,0,10,3,1,1,STrus CS,1,5,5,4,A,1,3,1,507,2.36,<Null>,B,4,0,N,0,0,6,4,5,Poor,9,5,5,24,6/12/2023,6/12/2025,35,1,186,34,475,1502,300,1202,3004,2022,<Null>,<Null>,<Null>,<Null>,<Null>,<Null>,<Null>,<Null>,<Null>,<Null>,<Null>,10/16/2023 3:33,000000HV,131,2024
25,Point,000000HX,509/101,F B HOIT,SR 509,THAMES CREEK/PED TRAIL,Washington State,Washington State,UNINCORPORATED,King County,NW,47.31797,-122.414436,N,5,<Null>,<Null>,1929,1996,557,72,99.9,2,28,35,0,5.5,9999,0,3,3,0,0,SG,11,5,5,0,A,1,3,1,509,7.85,<Null>,B,6,0,Y,0,0,7,5,6,Fair,9,9,0,24,7/11/2022,7/11/2024,35,1,557,32,475,4233,847,3386,8466,2022,<Null>,<Null>,<Null>,<Null>,<Null>,<Null>,<Null>,<Null>,<Null>,<Null>,<Null>,10/16/2023 3:33,000000HX,326,2024
26,Point,000000HY,509/103,JOES CREEK,SR 509,JOES CREEK,Washington State,Washington State,FEDERAL WAY,King County,NW,47.326668,-122.376968,N,5,<Null>,<Null>,1929,1996,264,72,99.9,2,28,36,0,5.8,9999,0,3,4,0,0,SG,5,5,5,6,A,1,3,1,509,9.93,<Null>,B,6,0,Y,0,0,7,6,6,Fair,9,9,1,24,7/11/2022,7/11/2024,35,1,264,34,475,2132,426,1706,4264,2022,<Null>,<Null>,<Null>,<Null>,<Null>,<Null>,<Null>,<Null>,<Null>,<Null>,<Null>,10/16/2023 3:33,000000HY,1326,2024
27,Point,000000II,500/16,LACAMAS LAKE,SR 500,LACAMAS LAKE,Washington State,Washington State,CAMAS,Clark County,SW,45.604389,-122.407143,N,5,<Null>,<Null>,1930,0,79,30,74,2,24,32.6,7,0,9999,0,4,2,0,0,CTB,3,5,5,0,A,1,3,1,500,17.77,<Null>,B,10,0,N,0,0,4,6,6,Poor,9,3,2,24,10/27/2021,10/27/2023,35,1,79,26,400,411,82,329,822,2014,<Null>,<Null>,<Null>,<Null>,<Null>,<Null>,<Null>,<Null>,<Null>,<Null>,<Null>,10/16/2023 3:33,000000II,26,2024
28,Point,000000IR,169/8,GREEN RIVER-DAN EVANS BR,SR 169,GREEN R,Washington State,Washington State,UNINCORPORATED,King County,NW,47.276371,-121.991776,N,3,<Null>,<Null>,1932,0,688,147,99.9,2,24,28,3.3,0,9999,0,9,3,4,1,STrus,4,5,5,0,A,1,3,1,169,5.2,<Null>,B,11,1,Y,0,0,6,5,6,Fair,9,5,0,24,5/8/2023,5/8/2025,35,1,688,40,475,6536,1307,5229,13072,2022,<Null>,<Null>,<Null>,<Null>,<Null>,<Null>,<Null>,<Null>,<Null>,<Null>,<Null>,10/16/2023 3:33,000000IR,726,2024
29,Point,000000IU,503/26,LEWIS RIVER  YALE,SR 503,LEWIS RIVER,Washington State,Washington State,UNINCORPORATED,Clark County,SW,45.960312,-122.372467,N,1,<Null>,<Null>,1932,1957,458,300,99.9,1,16.7,20,0,0,1407,0,13,3,2,3,SSusS SB,1,1,5,1,P,1,3,1,503,27.83,<Null>,B,68,1,Y,0,2,6,5,6,Fair,9,8,3,24,3/20/2023,3/20/2025,35,1,458,23,475,2502,500,2002,5004,2022,<Null>,<Null>,<Null>,<Null>,<Null>,<Null>,<Null>,<Null>,<Null>,<Null>,<Null>,10/16/2023 3:33,000000IU,1755,2024
30,Point,000000JJ,155/101,COLUMBIA R GRAND COULEE,SR 155,COLUMBIA RIVER,Washington State,Washington State,COULEE DAM,Douglas County,NC,47.965393,-118.982323,N,1,<Null>,<Null>,1935,0,1089,550,99.9,2,20.2,22,3.8,3.8,1408,0,10,4,4,2,STrus CTB,3,5,5,2,A,1,3,1,155,28.26,<Null>,B,1,1,Y,0,0,7,6,7,Fair,9,8,7,24,10/11/2021,10/11/2023,35,1,1089,42,475,10863,2173,8690,21726,2022,<Null>,<Null>,<Null>,<Null>,<Null>,<Null>,<Null>,<Null>,<Null>,<Null>,<Null>,10/16/2023 3:33,000000JJ,658,2024
31,Point,000000JQ,302/105,PURDY BRIDGE,SR 302,HENDERSON BAY,Washington State,Washington State,UNINCORPORATED,Pierce County,OL,47.38364,-122.62928,N,1,<Null>,<Null>,1936,1966,550,190,99.9,2,20,22,0,3.5,9999,0,5,2,0,0,CBOX,5,5,5,2,A,1,3,1,302,15.69,<Null>,B,38,1,Y,0,0,6,6,4,Poor,9,5,3,24,6/26/2022,6/26/2024,35,1,550,28,475,3658,732,2926,7315,2022,<Null>,<Null>,<Null>,<Null>,<Null>,<Null>,<Null>,<Null>,<Null>,<Null>,<Null>,10/16/2023 3:33,000000JQ,123,2024
32,Point,000000JV,508/25,CREEK,SR 508,CREEK,Washington State,Washington State,UNINCORPORATED,Lewis County,SW,46.591793,-122.429443,N,5,<Null>,<Null>,1937,0,26,24,<Null>,2,19.7,20.5,0,0,9999,0,2,7,0,0,TTC,1,1,5,0,A,1,3,1,508,24.08,<Null>,B,35,0,N,0,0,6,6,5,Fair,9,3,0,24,10/12/2021,10/12/2023,35,1,26,22,400,114,23,92,229,2014,<Null>,<Null>,<Null>,<Null>,<Null>,<Null>,<Null>,<Null>,<Null>,<Null>,<Null>,10/16/2023 3:33,000000JV,425,2024
33,Point,000000JY,  7/9.25,COAL CREEK,SR 7,COAL CANYON CR,Washington State,Washington State,UNINCORPORATED,Lewis County,SW,46.580704,-122.24958,N,5,<Null>,<Null>,1938,0,20,16,16.1,2,24,27,0,0,9999,0,1,1,0,0,CS,1,1,5,0,A,1,3,1,7,2.64,<Null>,B,99,1,Y,0,0,4,7,7,Poor,9,U,0,<Null>,<Null>,<Null>,35,1,20,34,475,162,32,129,323,2022,<Null>,<Null>,<Null>,<Null>,<Null>,<Null>,<Null>,<Null>,<Null>,<Null>,<Null>,10/16/2023 3:33,000000JY,32,2024
34,Point,000000KH,410/225,MILK CREEK,SR 410,MILK CREEK,Washington State,Washington State,UNINCORPORATED,Yakima County,SC,46.982647,-121.093719,N,5,<Null>,<Null>,1939,0,38,16,33,2,29.3,32.5,0,0,9999,0,1,7,0,0,TS,3,1,5,2,A,1,3,1,410,92.76,<Null>,B,99,0,Y,0,2,6,6,6,Fair,9,3,0,24,9/30/2021,9/30/2023,35,1,38,31,475,280,56,224,560,2022,<Null>,<Null>,<Null>,<Null>,<Null>,<Null>,<Null>,<Null>,<Null>,<Null>,<Null>,10/16/2023 3:33,000000KH,1063,2024
35,Point,000000KN, 90/25S,LACEY V. MURROW BRIDGE,I-90,LAKE WASHINGTON,Washington State,Washington State,SEATTLE,King County,NW,47.59,-122.283333,R,2,<Null>,<Null>,1940,1992,6561,6561,99.9,4,56,60,0,0,9999,0,0,1,0,0,CFP SA CBox,1,1,5,6,A,1,1,1,90,4.28,<Null>,I,1,1,Y,1,0,5,7,4,Poor,9,8,0,24,5/6/2023,5/6/2025,35,1,6561,54,475,84145,16829,67316,168290,2022,<Null>,<Null>,<Null>,<Null>,<Null>,<Null>,<Null>,<Null>,<Null>,<Null>,<Null>,10/16/2023 3:33,000000KN,208,2024
36,Point,000000KO, 90/24.5S,LVM WEST APPROACH,EB I-90,LAKE WASHINGTON,Washington State,Washington State,SEATTLE,King County,NW,47.589973,-122.287308,R,1,<Null>,<Null>,1940,1992,1064,215,99.9,4,52,55,0,0,2100,4200,12,3,20,0,Cbox Struss STA SG,1,1,6,6,A,1,1,1,90,4.28,<Null>,I,1,1,Y,1,0,7,5,7,Fair,9,5,0,24,5/6/2023,5/6/2025,35,1,1064,69,475,17436,3487,13949,34873,2022,<Null>,<Null>,<Null>,<Null>,<Null>,<Null>,<Null>,<Null>,<Null>,<Null>,<Null>,10/16/2023 3:33,000000KO,346,2024
37,Point,000000KP, 90/25.5S,LVM EAST APPROACH,EB I-90,LAKE WASHINGTON,Washington State,Washington State,UNINCORPORATED,King County,NW,47.589256,-122.255775,R,1,<Null>,<Null>,1940,1992,890,227,99.9,4,52,55,0,0,2003,2011,12,3,20,0,SG STA PTCBox,1,1,6,6,A,1,1,1,90,4.28,<Null>,I,1,1,Y,1,0,7,7,7,Good,9,5,0,24,5/6/2023,5/6/2025,35,1,890,54,475,11414,2283,9131,22828,2022,<Null>,<Null>,<Null>,<Null>,<Null>,<Null>,<Null>,<Null>,<Null>,<Null>,<Null>,10/16/2023 3:33,000000KP,1533,2024
38,Point,000000LM, 12/12S,HERON STREET BRIDGE,US 12 / HERON ST,WISHKAH RIVER,Washington State,Washington State,ABERDEEN,Grays Harbor County,OL,46.975971,-123.812057,R,2,<Null>,<Null>,1949,0,235,93,99.9,2,28,29.5,5,0,9999,0,17,4,3,3,SSwS SG,2,5,5,4,A,1,2,1,12,0.08,<Null>,I,1,1,Y,2,0,3,5,3,Poor,9,4,0,24,3/27/2023,3/27/2025,35,1,235,30,475,1674,335,1340,3349,2022,<Null>,<Null>,<Null>,<Null>,<Null>,<Null>,<Null>,<Null>,<Null>,<Null>,<Null>,10/16/2023 3:33,000000LM,41,2024
39,Point,000000LN, 28/110,WINCHESTER WASTEWAY,SR 28,WINCHESTER WASTEWAY,Washington State,Washington State,UNINCORPORATED,Grant County,NC,47.249329,-119.684937,N,5,<Null>,<Null>,1949,0,34,33,<Null>,2,36,40,0,0,9999,0,4,1,0,0,CTB,1,1,5,5,A,1,3,1,28,38.11,<Null>,B,7,1,Y,0,0,7,7,7,Good,9,8,3,24,1/31/2022,2/1/2024,35,1,34,40,475,323,65,258,646,2022,<Null>,<Null>,<Null>,<Null>,<Null>,<Null>,<Null>,<Null>,<Null>,<Null>,<Null>,10/16/2023 3:33,000000LN,954,2024
40,Point,000000LR, 17/401,COLUMBIA R  BRIDGEPORT,SR 17,COLUMBIA RIVER,Washington State,Washington State,BRIDGEPORT,Douglas County,NC,47.999733,-119.655861,N,1,<Null>,<Null>,1950,0,1150,300,99.9,2,26,33.5,2.4,2.4,9999,0,9,4,2,4,STrus SRB,3,5,5,5,A,1,3,1,17,135.92,<Null>,B,35,1,Y,0,1,6,6,6,Fair,9,8,3,24,8/1/2023,8/1/2025,35,1,1150,42,475,11471,2294,9177,22942,2022,<Null>,<Null>,<Null>,<Null>,<Null>,<Null>,<Null>,<Null>,<Null>,<Null>,<Null>,10/16/2023 3:33,000000LR,737,2024
41,Point,000000LZ,281/10,WEST CANAL,SR 281,WEST CANAL,Washington State,Washington State,QUINCY,Grant County,NC,47.225182,-119.853378,N,5,<Null>,<Null>,1950,1988,108,39,99.9,2,40,43,0,0,9999,0,4,2,0,0,CTB,3,1,5,5,A,1,3,1,281,9.98,<Null>,B,4,1,Y,0,0,7,7,7,Good,9,7,1,24,2/9/2023,2/9/2025,35,1,108,42,475,1072,214,858,2145,2022,<Null>,<Null>,<Null>,<Null>,<Null>,<Null>,<Null>,<Null>,<Null>,<Null>,<Null>,10/16/2023 3:33,000000LZ,963,2024
42,Point,000000MB,101/27,SOUTH NEMAH R NO 2,US 101,SOUTH NEMAH RIVER,Washington State,Washington State,UNINCORPORATED,Pacific County,SW,46.449776,-123.872475,N,5,<Null>,<Null>,1951,0,40,19,35,2,36,36,0,0,9999,0,2,7,0,0,TTC,2,1,5,3,A,1,2,1,101,30.62,<Null>,B,99,1,Y,2,0,8,8,6,Fair,9,U,2,24,8/18/2022,8/18/2024,35,1,40,38,475,361,72,289,722,2022,<Null>,<Null>,<Null>,<Null>,<Null>,<Null>,<Null>,<Null>,<Null>,<Null>,<Null>,10/16/2023 3:33,000000MB,477,2024
43,Point,000000MD, 28/104,IRRIGATION CANAL,SR 28,IRRIGATION CANAL,Washington State,Washington State,UNINCORPORATED,Grant County,NC,47.232445,-119.921585,N,5,<Null>,<Null>,1952,0,57,54,52,2,36,40,0,0,9999,0,4,1,0,0,CTB,1,1,5,5,A,1,3,1,28,26.56,<Null>,B,6,1,Y,0,0,8,7,6,Fair,9,7,2,24,1/31/2022,2/1/2024,35,1,57,40,475,542,108,433,1083,2022,<Null>,<Null>,<Null>,<Null>,<Null>,<Null>,<Null>,<Null>,<Null>,<Null>,<Null>,10/16/2023 3:33,000000MD,953,2024
44,Point,000000MF,  2/207,NASON CR,US 2,NASON CR,Washington State,Washington State,UNINCORPORATED,Chelan County,NC,47.769112,-120.803001,N,5,<Null>,<Null>,1953,0,170,80,99.9,2,32,35,0,0,9999,0,4,2,0,0,CTB,3,1,5,0,A,1,2,1,2,81.36,<Null>,B,99,1,Y,0,2,7,7,7,Good,9,5,1,24,8/3/2022,8/3/2024,35,1,170,38,475,1534,307,1227,3068,2022,<Null>,<Null>,<Null>,<Null>,<Null>,<Null>,<Null>,<Null>,<Null>,<Null>,<Null>,10/16/2023 3:33,000000MF,787,2024
45,Point,000000MH, 12/610,US 12 OVER ABANDONED RR,US 12,ABANDONED RR GRADE,Washington State,Washington State,UNINCORPORATED,Walla Walla County,SC,46.068275,-118.908028,N,5,<Null>,<Null>,1953,0,145,48,99.9,2,28,35.3,3.2,3.2,9999,0,2,3,0,0,SRB,3,5,0,0,A,1,2,1,12,306.76,<Null>,B,29,1,Y,0,0,6,6,5,Fair,9,N,0,24,4/26/2023,4/26/2025,35,1,145,37,475,1274,255,1019,2548,2022,<Null>,<Null>,<Null>,<Null>,<Null>,<Null>,<Null>,<Null>,<Null>,<Null>,<Null>,10/16/2023 3:33,000000MH,431,2024
46,Point,000000MI, 12/612,WALLA WALLA RIVER,US 12,WALLA WALLA RIVER,Washington State,Washington State,UNINCORPORATED,Walla Walla County,SC,46.060612,-118.909386,N,5,<Null>,<Null>,1953,0,369,123,99.9,2,28,36,2.7,2.7,9999,0,2,3,0,0,SG,3,5,5,0,A,1,2,1,12,307.31,<Null>,B,29,1,Y,0,0,6,6,6,Fair,9,5,1,24,3/21/2022,3/21/2024,35,1,369,46,475,4032,806,3225,8063,2022,<Null>,<Null>,<Null>,<Null>,<Null>,<Null>,<Null>,<Null>,<Null>,<Null>,<Null>,10/16/2023 3:33,000000MI,594,2024
47,Point,000000ML,206/20.25,DEADMAN CR NO 3,SR 206,DEADMAN CR NO 3,Washington State,Washington State,UNINCORPORATED,Spokane County,EA,47.837757,-117.172485,N,5,<Null>,<Null>,1953,0,20,18,18.4,2,25.5,27.7,0,0,9999,0,2,1,0,0,PRCB,1,1,5,0,A,1,3,1,206,11.09,<Null>,B,6,0,N,0,0,7,7,7,Good,9,U,0,<Null>,<Null>,<Null>,35,1,20,27,475,128,26,102,256,2022,<Null>,<Null>,<Null>,<Null>,<Null>,<Null>,<Null>,<Null>,<Null>,<Null>,<Null>,10/16/2023 3:33,000000ML,875,2024
48,Point,000000MM,503/17,CHELATCHIE CREEK,SR 503,CHELATCHIE CREEK,Washington State,Washington State,UNINCORPORATED,Clark County,SW,45.911087,-122.446785,N,5,<Null>,<Null>,1953,0,31,28,<Null>,2,30,31,0.3,0,9999,0,2,3,0,0,SRB,1,1,5,5,A,1,3,1,503,20.76,<Null>,B,4,1,Y,0,2,8,7,7,Good,9,3,4,24,8/16/2022,8/16/2024,35,1,31,32,475,236,47,188,471,2022,<Null>,<Null>,<Null>,<Null>,<Null>,<Null>,<Null>,<Null>,<Null>,<Null>,<Null>,10/16/2023 3:33,000000MM,1304,2024
49,Point,000000MN,503/19,N BRANCH CHELATCHIE CR,SR 503,N BRANCH CHELATCHIE CR,Washington State,Washington State,UNINCORPORATED,Clark County,SW,45.91713,-122.43499,N,5,<Null>,<Null>,1953,0,25,22,22,2,26,28.3,0.3,0.3,9999,0,1,1,0,0,CS,1,1,5,5,A,1,3,1,503,21.58,<Null>,B,4,1,Y,0,2,3,7,7,Poor,9,3,1,24,7/17/2023,7/17/2025,35,1,25,26,475,154,31,124,309,2022,<Null>,<Null>,<Null>,<Null>,<Null>,<Null>,<Null>,<Null>,<Null>,<Null>,<Null>,10/16/2023 3:33,000000MN,129,2024
50,Point,000000MP,206/16,DEADMAN CR NO 1,SR 206,DEADMAN CR NO 1,Washington State,Washington State,UNINCORPORATED,Spokane County,EA,47.80225,-117.219193,N,5,<Null>,<Null>,1954,0,32,29,<Null>,2,26.5,29,0,0,9999,0,2,1,0,0,PRCB,1,1,5,0,P,1,3,1,206,6.71,<Null>,B,9,0,N,0,0,7,6,6,Fair,9,5,1,24,8/17/2022,8/17/2024,35,1,32,28,475,213,43,170,426,2022,<Null>,<Null>,<Null>,<Null>,<Null>,<Null>,<Null>,<Null>,<Null>,<Null>,<Null>,10/16/2023 3:33,000000MP,873,2024
51,Point,000000MR,503/23.25,CHELATCHIE CREEK,SR 503,CHELATCHIE CREEK,Washington State,Washington State,UNINCORPORATED,Clark County,SW,45.925415,-122.379723,N,1,<Null>,<Null>,1909,1954,17,15,<Null>,2,26,28,0.5,0.5,9999,0,1,1,0,0,CS,1,1,5,5,A,1,3,1,503,24.65,<Null>,B,7,1,Y,0,2,7,7,6,Fair,9,3,2,<Null>,<Null>,<Null>,35,1,17,24,400,82,16,65,163,2014,<Null>,<Null>,<Null>,<Null>,<Null>,<Null>,<Null>,<Null>,<Null>,<Null>,<Null>,10/16/2023 3:33,000000MR,1305,2024
52,Point,000000MV,542/28,MAPLE CREEK,SR 542,MAPLE CREEK,Washington State,Washington State,UNINCORPORATED,Whatcom County,NW,48.921276,-122.072021,N,5,<Null>,<Null>,1900,1955,34,32,<Null>,2,24,26,0,0,9999,0,2,3,0,0,SRB,1,1,5,3,A,1,3,1,542,26.18,<Null>,B,99,0,Y,0,2,6,6,6,Fair,9,5,0,24,6/7/2022,6/7/2024,35,1,34,28,475,226,45,181,452,2022,<Null>,<Null>,<Null>,<Null>,<Null>,<Null>,<Null>,<Null>,<Null>,<Null>,<Null>,10/16/2023 3:33,000000MV,1400,2024
53,Point,000000MW,260/3,IRRIGATION CANAL,SR 260,IRRIGATION CANAL,Washington State,Washington State,UNINCORPORATED,Franklin County,SC,46.663639,-118.942024,N,5,<Null>,<Null>,1956,0,32,29,29.4,2,39.4,39.4,0,0,9999,0,1,1,0,0,CS,1,1,5,3,A,1,3,1,260,3.07,<Null>,B,4,0,N,0,0,7,7,7,Good,9,U,0,24,2/8/2023,2/8/2025,35,1,32,32,475,243,49,194,486,2022,<Null>,<Null>,<Null>,<Null>,<Null>,<Null>,<Null>,<Null>,<Null>,<Null>,<Null>,10/16/2023 3:33,000000MW,930,2024
54,Point,000000NB,101/29,SOUTH NEMAH R NO 1,US 101,SOUTH NEMAH RIVER,Washington State,Washington State,UNINCORPORATED,Pacific County,SW,46.475193,-123.884972,N,5,<Null>,<Null>,1957,0,48,37,43,2,29,30.3,0,0,9999,0,2,4,0,0,SRB,3,1,5,3,A,1,2,1,101,32.52,<Null>,B,99,1,Y,2,0,6,6,7,Fair,9,U,1,24,8/24/2021,8/24/2023,35,1,48,38,400,365,73,292,730,2014,<Null>,<Null>,<Null>,<Null>,<Null>,<Null>,<Null>,<Null>,<Null>,<Null>,<Null>,10/16/2023 3:33,000000NB,478,2024
55,Point,000000NC,109/25,WRECK CREEK,SR 109,WRECK CREEK,Washington State,Washington State,UNINCORPORATED,Grays Harbor County,OL,47.284443,-124.233833,N,5,<Null>,<Null>,1957,0,137,38,99.9,2,26,29.6,1.8,1.8,9999,0,1,2,0,0,CSTP,4,1,5,0,A,1,3,1,109,35.17,<Null>,B,15,0,Y,0,1,7,7,6,Fair,9,3,1,24,5/22/2023,5/22/2025,35,1,137,30,475,976,195,781,1952,2022,<Null>,<Null>,<Null>,<Null>,<Null>,<Null>,<Null>,<Null>,<Null>,<Null>,<Null>,10/16/2023 3:33,000000NC,520,2024
56,Point,000000NJ, 97/355ALT,ENTIAT RIVER,US 97ALT,ENTIAT RIVER,Washington State,Washington State,UNINCORPORATED,Chelan County,NC,47.660889,-120.224998,N,5,<Null>,<Null>,1959,0,406,165,99.9,2,28.6,31.6,0,0,9999,0,5,2,0,0,CBox,3,1,5,3,A,1,2,2,097AR,214.12,<Null>,B,33,1,Y,0,0,7,6,7,Fair,9,8,1,24,7/12/2022,7/12/2024,35,1,406,42,475,4050,810,3240,8100,2022,<Null>,<Null>,<Null>,<Null>,<Null>,<Null>,<Null>,<Null>,<Null>,<Null>,<Null>,10/16/2023 3:33,000000NJ,1600,2024
57,Point,000000NO,206/18.25,DEADMAN CR NO 2,SR 206,DEADMAN CR NO 2,Washington State,Washington State,UNINCORPORATED,Spokane County,EA,47.835815,-117.196152,N,5,<Null>,<Null>,1960,0,21,18,18,2,31.5,33.4,0,0,9999,0,2,1,0,0,PRCB,1,1,5,0,A,1,3,1,206,9.61,<Null>,B,4,0,N,0,0,7,7,7,Good,9,3,1,<Null>,<Null>,<Null>,35,1,21,26,475,130,26,104,259,2022,<Null>,<Null>,<Null>,<Null>,<Null>,<Null>,<Null>,<Null>,<Null>,<Null>,<Null>,10/16/2023 3:33,000000NO,874,2024
58,Point,000000NP,206/22,DEADMAN CR NO 4,SR 206,DEADMAN CR NO 4,Washington State,Washington State,UNINCORPORATED,Spokane County,EA,47.842785,-117.172493,N,5,<Null>,<Null>,1960,1991,22,18,18.4,2,32,34,0,0,9999,0,22,1,0,0,PRCB,1,1,5,3,A,1,3,1,206,11.45,<Null>,B,6,0,N,0,0,7,6,7,Fair,9,5,1,<Null>,<Null>,<Null>,35,1,22,26,475,136,27,109,272,2022,<Null>,<Null>,<Null>,<Null>,<Null>,<Null>,<Null>,<Null>,<Null>,<Null>,<Null>,10/16/2023 3:33,000000NP,876,2024
59,Point,000000NU,505/104,CEDAR CREEK,SR 505,CEDAR CREEK,Washington State,Washington State,UNINCORPORATED,Lewis County,SW,46.429947,-122.709427,N,5,<Null>,<Null>,1962,0,52,50,47,2,24,25.5,0,0,9999,0,2,3,0,0,SRB,1,1,5,0,A,1,3,1,505,13.59,<Null>,B,42,0,N,0,0,8,7,7,Good,9,U,2,24,11/14/2022,11/14/2024,35,1,52,30,475,370,74,296,741,2022,<Null>,<Null>,<Null>,<Null>,<Null>,<Null>,<Null>,<Null>,<Null>,<Null>,<Null>,10/16/2023 3:33,000000NU,1756,2024
60,Point,000000OD, 14/250,ALDER CREEK,SR 14,ALDER CREEK,Washington State,Washington State,UNINCORPORATED,Klickitat County,SW,45.835835,-119.929443,N,5,<Null>,<Null>,1965,0,218,73,99.9,2,28,33.6,1.2,1.2,9999,1210,2,5,0,0,PCG,3,1,6,5,A,1,3,1,14,149.06,<Null>,B,41,1,Y,0,0,4,7,7,Poor,9,5,0,24,5/25/2022,5/25/2024,35,1,218,40,475,2071,414,1657,4142,2022,<Null>,<Null>,<Null>,<Null>,<Null>,<Null>,<Null>,<Null>,<Null>,<Null>,<Null>,10/16/2023 3:33,000000OD,9,2024
61,Point,000000OE, 14/302,DEAD CANYON,SR 14,DEAD CANYON,Washington State,Washington State,UNINCORPORATED,Benton County,SC,45.86961,-119.824638,N,5,<Null>,<Null>,1965,0,169,61,99.9,2,28,33.1,1.5,1.5,9999,1500,2,5,0,0,PCG,3,1,6,5,A,1,3,1,14,155.12,<Null>,B,99,1,Y,0,0,6,7,7,Fair,9,8,1,24,5/25/2022,5/25/2024,35,1,169,37,475,1485,297,1188,2970,2022,<Null>,<Null>,<Null>,<Null>,<Null>,<Null>,<Null>,<Null>,<Null>,<Null>,<Null>,10/16/2023 3:33,000000OE,644,2024
62,Point,000000OH,501/20,GEE CREEK,SR 501,GEE CREEK,Washington State,Washington State,RIDGEFIELD,Clark County,SW,45.815445,-122.731277,N,5,<Null>,<Null>,1965,0,67,63,62,2,24,28.5,3.5,0,9999,0,3,3,0,0,SG,1,5,5,0,A,1,3,1,501,17.66,<Null>,B,3,0,N,0,0,7,6,6,Fair,9,U,5,24,5/25/2022,5/25/2024,35,1,67,32,475,509,102,407,1018,2022,<Null>,<Null>,<Null>,<Null>,<Null>,<Null>,<Null>,<Null>,<Null>,<Null>,<Null>,10/16/2023 3:33,000000OH,1301,2024
63,Point,000000OK,544/13.25,E. FORK JOHNSON CR,SR 544,E. FORK JOHNSON CR,Washington State,Washington State,EVERSON,Whatcom County,NW,48.920185,-122.33445,N,5,<Null>,<Null>,1966,0,18,16,<Null>,2,26.9,28.7,3.5,0,9999,0,2,7,0,0,TTC,1,5,5,2,A,1,3,1,544,8.43,<Null>,B,4,0,N,0,0,6,7,6,Fair,9,7,0,<Null>,<Null>,<Null>,35,1,18,38,475,162,32,130,325,2022,<Null>,<Null>,<Null>,<Null>,<Null>,<Null>,<Null>,<Null>,<Null>,<Null>,<Null>,10/16/2023 3:33,000000OK,391,2024
64,Point,000000OL, 20/274.25,CORKINDALE CREEK,SR 20,CORKINDALE CREEK,Washington State,Washington State,UNINCORPORATED,Skagit County,NW,48.508888,-121.483749,N,5,<Null>,<Null>,1967,0,18,16,14.9,2,24.2,26.5,0,0,9999,0,1,1,0,0,CSTP,1,1,5,4,A,1,3,1,20,102.98,<Null>,B,23,1,Y,0,2,7,7,6,Fair,9,U,0,<Null>,<Null>,<Null>,35,1,18,30,475,128,26,102,256,2022,<Null>,<Null>,<Null>,<Null>,<Null>,<Null>,<Null>,<Null>,<Null>,<Null>,<Null>,10/16/2023 3:33,000000OL,821,2024
65,Point,000000OM, 24/301,IRRIGATION CANAL,SR 24,IRRIGATION CANAL,Washington State,Washington State,UNINCORPORATED,Adams County,NC,46.737999,-119.307167,N,5,<Null>,<Null>,1967,0,66,29,61,2,38,41.5,0.7,0.7,9999,0,4,1,0,0,CTB,2,1,5,5,A,1,3,1,24,68.15,<Null>,B,92,0,Y,0,0,7,7,7,Good,9,8,0,48,2/14/2023,2/14/2027,35,1,66,30,475,468,94,374,936,2022,<Null>,<Null>,<Null>,<Null>,<Null>,<Null>,<Null>,<Null>,<Null>,<Null>,<Null>,10/16/2023 3:33,000000OM,912,2024
66,Point,000000OQ,127/8,DEADMAN CREEK,SR 127,DEADMAN CREEK,Washington State,Washington State,UNINCORPORATED,Garfield County,SC,46.616905,-117.792564,N,5,<Null>,<Null>,1969,0,184,60,99.9,2,40,43.4,0.8,0.8,9999,0,2,6,0,0,PCG,3,1,5,5,A,1,3,1,127,9.13,<Null>,B,15,1,Y,0,0,7,7,8,Good,9,8,0,24,7/26/2022,7/26/2024,35,1,184,42,475,1836,367,1468,3671,2022,<Null>,<Null>,<Null>,<Null>,<Null>,<Null>,<Null>,<Null>,<Null>,<Null>,<Null>,10/16/2023 3:33,000000OQ,621,2024
67,Point,000000OR,127/101,SR 127 OVER RAILROAD,SR 127,CAMAS PRAIRIE RR,Washington State,Washington State,UNINCORPORATED,Whitman County,EA,46.632149,-117.805351,N,5,<Null>,<Null>,1969,0,257,84,99.9,2,40,43.4,0.7,0.7,9999,2409,2,6,0,0,PCG,3,1,2,5,A,1,3,1,127,10.35,<Null>,B,43,1,Y,0,0,7,7,7,Good,9,N,0,48,3/22/2022,3/22/2026,35,1,257,42,475,2564,513,2051,5127,2022,<Null>,<Null>,<Null>,<Null>,<Null>,<Null>,<Null>,<Null>,<Null>,<Null>,<Null>,10/16/2023 3:33,000000OR,619,2024
68,Point,000000OT,164/15,SR 164 OVER R ST,SR 164,R ST,Washington State,Washington State,AUBURN,King County,NW,47.291943,-122.208389,N,5,<Null>,<Null>,1970,0,161,160,99.9,4,48,60,5,5,9999,1403,5,5,0,0,POBX,1,5,1,6,A,1,3,1,164,1.49,<Null>,B,1,0,Y,0,0,7,7,7,Good,9,N,0,24,6/30/2022,6/30/2024,35,1,161,58,475,2218,444,1774,4436,2022,<Null>,<Null>,<Null>,<Null>,<Null>,<Null>,<Null>,<Null>,<Null>,<Null>,<Null>,10/16/2023 3:33,000000OT,685,2024
69,Point,000000OY,260/103.25,WASHTUCNA ARROYO,SR 260,WASHTUCNA ARROYO,Washington State,Washington State,WASHTUCNA,Adams County,EA,46.755314,-118.31147,N,5,<Null>,<Null>,1900,0,18,8,<Null>,2,22,24,4,0,9999,0,1,2,0,0,CS,2,1,5,2,A,1,3,1,260,39.22,<Null>,B,1,0,N,0,0,7,6,6,Fair,9,U,0,<Null>,<Null>,<Null>,35,1,18,32,475,137,27,110,274,2022,<Null>,<Null>,<Null>,<Null>,<Null>,<Null>,<Null>,<Null>,<Null>,<Null>,<Null>,10/16/2023 3:33,000000OY,928,2024
70,Point,000000PB,512/3W,STEELE ST OVER SR 512,STEELE ST,SR 512,Washington State,Washington State,UNINCORPORATED,Pierce County,OL,47.159924,-122.467728,R,5,<Null>,<Null>,1975,0,138,68,99.9,2,26,33.9,3.8,3.2,9999,1603,1,2,0,0,CS,2,5,1,6,A,1,4,1,512LX00062,0.06,<Null>,I,1,1,N,0,0,7,7,7,Good,9,N,0,48,7/19/2021,7/19/2025,35,1,138,30,400,828,166,662,1656,2014,<Null>,<Null>,<Null>,<Null>,<Null>,<Null>,<Null>,<Null>,<Null>,<Null>,<Null>,10/16/2023 3:33,000000PB,1348,2024
71,Point,000000PC,197/1,COLUMBIA RIVER @ THE DALLES,US 197,"COLUMBIA R, SP & S RY",Oregon,Oregon,UNINCORPORATED,Klickitat County,SW,45.61047,-121.139503,N,1,<Null>,<Null>,1954,0,3345,576,99.9,2,24,32,4,0,1509,5400,10,4,2,4,ST SG SB,5,1,7,4,A,1,3,1,197,0.42,<Null>,B,43,1,Y,0,0,4,5,6,Poor,9,5,2,24,8/30/2022,8/30/2024,35,1,3345,26,475,20656,4131,16524,41311,2022,<Null>,<Null>,<Null>,<Null>,<Null>,<Null>,<Null>,<Null>,<Null>,<Null>,<Null>,10/16/2023 3:33,000000PC,92,2024
72,Point,000000PD, 82/280S,COLUMBIA R BR @ UMATILLA,I-82,COLUMBIA RIVER,Washington State,Washington State,UNINCORPORATED,Benton County,SC,45.934944,-119.33033,R,3,<Null>,<Null>,1955,1990,3380,600,99.9,2,27.5,30.1,0,0,1511,0,10,4,2,4,STrus SG,5,1,5,6,A,1,1,1,82,132.36,<Null>,I,1,1,Y,1,0,7,6,7,Fair,9,5,0,24,6/26/2023,6/26/2025,35,1,3380,40,475,32110,6422,25688,64220,2022,<Null>,<Null>,<Null>,<Null>,<Null>,<Null>,<Null>,<Null>,<Null>,<Null>,<Null>,10/16/2023 3:33,000000PD,1759,2024
73,Point,000000PF,261/122,SR 261 OVER RAILROAD,SR 261,UP RR,Washington State,Washington State,UNINCORPORATED,Columbia County,SC,46.563965,-118.186165,N,5,<Null>,<Null>,1967,0,170,56,99.9,2,26,31.5,1.5,1.5,9999,2508,2,5,0,0,PCG,3,1,2,6,A,1,3,1,261,12.51,<Null>,B,12,0,N,0,0,5,7,7,Fair,9,N,0,24,3/29/2023,3/29/2025,35,1,170,25,475,1010,202,808,2019,2022,<Null>,<Null>,<Null>,<Null>,<Null>,<Null>,<Null>,<Null>,<Null>,<Null>,<Null>,10/16/2023 3:33,000000PF,358,2024
74,Point,000000PG,547/2,SAAR CREEK,SR 547,SAAR CREEK,Washington State,Washington State,UNINCORPORATED,Whatcom County,NW,48.98188,-122.238503,N,5,<Null>,<Null>,1970,0,32,29,<Null>,2,24,25.4,0,0,9999,0,22,1,0,0,PRCB,1,1,5,5,A,1,3,1,547,8.89,<Null>,B,28,0,N,0,0,3,6,7,Poor,9,U,0,24,8/24/2021,8/24/2023,35,1,32,25,475,190,38,152,380,2022,<Null>,<Null>,<Null>,<Null>,<Null>,<Null>,<Null>,<Null>,<Null>,<Null>,<Null>,10/16/2023 3:33,000000PG,137,2024
75,Point,000000PR,  5/1E,COLUMBIA R   INTERSTATE,I-5,COLUMBIA RIVER,Oregon,Oregon,VANCOUVER,Clark County,SW,45.618038,-122.675278,R,1,<Null>,<Null>,1916,1958,3538,279,99.9,3,38,45.3,0,5.2,1506,1410,15,3,10,3,SLS STrus CG,1,5,6,2,A,1,1,1,5,0,<Null>,I,1,1,Y,1,0,5,5,5,Fair,9,3,0,24,5/9/2022,5/9/2024,35,1,3538,44,475,36972,7394,29578,73944,2022,<Null>,<Null>,<Null>,<Null>,<Null>,<Null>,<Null>,<Null>,<Null>,<Null>,<Null>,10/16/2023 3:33,000000PR,161,2024
76,Point,000000QC,167/129,S 212TH ST OVER SR 167,S 212TH ST,SR 167 & SPRINGBROOK CK,Washington State,Washington State,KENT,King County,NW,47.412109,-122.221497,N,5,<Null>,<Null>,1973,1992,317,104,99.9,5,61,68.5,5,0,9999,1603,2,5,0,0,PCG,3,1,6,6,A,1,5,1,167LX02240,0.03,<Null>,B,0,1,N,0,0,7,6,7,Fair,9,8,1,24,3/2/2023,3/2/2025,35,1,317,60,475,4522,904,3617,9043,2022,<Null>,<Null>,<Null>,<Null>,<Null>,<Null>,<Null>,<Null>,<Null>,<Null>,<Null>,10/16/2023 3:33,000000QC,711,2024
77,Point,000000QD,101/324,BARNES CREEK,US 101,BARNES CREEK,Washington State,Washington State,UNINCORPORATED,Clallam County,OL,48.054913,-123.794083,N,5,<Null>,<Null>,1986,0,84,78,73,2,31.5,35.5,0,0,9999,0,2,5,0,0,PCG,1,1,5,5,A,1,2,1,101,227.64,<Null>,B,50,1,Y,0,0,7,7,7,Good,9,8,0,24,3/14/2023,3/14/2025,35,1,84,33,475,658,132,527,1317,2022,<Null>,<Null>,<Null>,<Null>,<Null>,<Null>,<Null>,<Null>,<Null>,<Null>,<Null>,10/16/2023 3:33,000000QD,480,2024
78,Point,000000QR, 21/101,OVERFLOW,SR 21,INTERMITTENT STREAM,Washington State,Washington State,UNINCORPORATED,Adams County,EA,46.777527,-118.547386,N,5,<Null>,<Null>,1981,0,42,42,37,2,30,32,0,0,9999,0,22,5,0,0,PCMWG,1,1,5,4,A,1,3,1,21,10.45,<Null>,B,12,0,N,0,0,7,6,7,Fair,9,5,0,24,2/2/2022,2/2/2024,35,1,42,34,475,339,68,271,678,2022,<Null>,<Null>,<Null>,<Null>,<Null>,<Null>,<Null>,<Null>,<Null>,<Null>,<Null>,10/16/2023 3:33,000000QR,878,2024
79,Point,000000QW,547/3,FRONT ST OVER SUMAS R,SR 547,SUMAS RIVER,Washington State,Washington State,UNINCORPORATED,Whatcom County,NW,48.992748,-122.253944,N,5,<Null>,<Null>,1952,0,126,22,99.9,2,24,25.5,0,0,9999,0,1,2,0,0,CS,6,1,5,3,A,1,3,1,547,10.29,<Null>,B,4,0,N,0,0,7,7,7,Good,9,5,1,24,7/24/2023,7/24/2025,35,1,126,27,475,808,162,646,1616,2022,<Null>,<Null>,<Null>,<Null>,<Null>,<Null>,<Null>,<Null>,<Null>,<Null>,<Null>,10/16/2023 3:33,000000QW,1409,2024
80,Point,000000QX,530/289,BOHS SLOUGH,SR 530,BOHS SLOUGH,Washington State,Washington State,UNINCORPORATED,Skagit County,NW,48.48222,-121.592361,N,5,<Null>,<Null>,1961,0,76,76,71,2,24.1,25,0,0,9999,0,2,5,0,0,PCBTG,1,1,5,2,A,1,3,1,530,67.2,<Null>,B,23,1,Y,0,1,8,7,7,Good,9,8,0,24,4/25/2023,4/25/2025,35,1,76,32,475,578,116,462,1155,2022,<Null>,<Null>,<Null>,<Null>,<Null>,<Null>,<Null>,<Null>,<Null>,<Null>,<Null>,10/16/2023 3:33,000000QX,1394,2024
81,Point,000000QY,530/290,ROCKPORT BRIDGE,SR 530,SKAGIT RIVER,Washington State,Washington State,UNINCORPORATED,Skagit County,NW,48.484165,-121.592972,N,3,<Null>,<Null>,1961,0,506,177,99.9,2,24.3,31.4,4,0,9999,0,2,4,4,1,SG CTB,3,5,5,2,A,1,3,1,530,67.34,<Null>,B,23,1,Y,0,1,7,6,7,Fair,9,5,1,24,5/3/2022,5/3/2024,35,1,506,32,475,3846,769,3076,7691,2022,<Null>,<Null>,<Null>,<Null>,<Null>,<Null>,<Null>,<Null>,<Null>,<Null>,<Null>,10/16/2023 3:33,000000QY,1395,2024
82,Point,00000BDJ,503/155.25,DOG CREEK CULVERT,SR 503 SPUR,DOG CREEK,Washington State,Washington State,UNINCORPORATED,Cowlitz County,SW,46.043331,-122.309998,N,4,<Null>,<Null>,1945,0,10,8,<Null>,2,0,0,0,0,9999,0,19,7,0,0,TCulv,1,1,5,0,A,1,3,4,503SPCOUGAR,35.83,<Null>,B,99,0,N,0,2,9,9,9,Poor,3,4,0,<Null>,<Null>,<Null>,35,1,10,26,475,62,12,50,124,2022,<Null>,<Null>,<Null>,<Null>,<Null>,<Null>,<Null>,<Null>,<Null>,<Null>,<Null>,10/16/2023 3:33,00000BDJ,1781,2024
83,Point,0000267A, 90/132S,YAKIMA RIVER,I-90,YAKIMA RIVER,Washington State,Washington State,UNINCORPORATED,Kittitas County,SC,47.186195,-121.04361,R,5,<Null>,<Null>,1917,1930,206,100,99.9,2,41,43,0,0,9999,0,11,2,0,0,CEFA,2,1,5,0,A,1,1,1,90,78.81,<Null>,I,1,1,Y,1,0,6,6,6,Fair,9,3,0,24,9/28/2021,9/28/2023,35,1,206,43,475,2104,421,1683,4208,2022,<Null>,<Null>,<Null>,<Null>,<Null>,<Null>,<Null>,<Null>,<Null>,<Null>,<Null>,10/16/2023 3:33,0000267A,1508,2024
84,Point,000034CE, 14/115,SR 14 OVER RAILROAD,SR 14,BN RR,Washington State,Washington State,NORTH BONNEVILLE,Skamania County,SW,45.651554,-121.923058,N,5,<Null>,<Null>,1978,0,319,115,99.9,2,44,47,0,0,9999,2606,2,6,0,0,PCG,3,1,2,6,A,1,3,1,14,40.48,<Null>,B,99,1,Y,0,2,6,7,7,Fair,9,N,0,24,4/5/2022,4/5/2024,35,1,319,42,475,3182,636,2546,6364,2022,<Null>,<Null>,<Null>,<Null>,<Null>,<Null>,<Null>,<Null>,<Null>,<Null>,<Null>,10/16/2023 3:33,000034CE,629,2024
85,Point,0000432A,395/512,COLVILLE RIVER,US 395,COLVILLE RIVER,Washington State,Washington State,UNINCORPORATED,Stevens County,EA,48.22089,-117.715416,N,5,<Null>,<Null>,1921,1963,98,55,93,2,38.6,41.6,0,0,9999,0,4,2,0,0,CTB,3,1,5,2,A,1,2,1,395,203.3,<Null>,B,11,1,Y,0,0,7,6,5,Fair,9,7,1,24,8/23/2022,8/23/2024,35,1,98,43,475,1001,200,801,2002,2022,<Null>,<Null>,<Null>,<Null>,<Null>,<Null>,<Null>,<Null>,<Null>,<Null>,<Null>,10/16/2023 3:33,0000432A,264,2024
86,Point,0000446A, 12/226,LACAMAS CREEK,US 12,LACAMAS CREEK,Washington State,Washington State,UNINCORPORATED,Lewis County,SW,46.532192,-122.739891,N,5,<Null>,<Null>,1921,2000,27,12,<Null>,3,52,54.5,0,0,9999,0,1,2,0,0,CS,2,1,5,0,A,1,2,1,12,73.23,<Null>,B,9,1,Y,0,0,7,7,7,Good,9,3,0,24,9/14/2022,9/14/2024,35,1,27,56,475,359,72,287,718,2022,<Null>,<Null>,<Null>,<Null>,<Null>,<Null>,<Null>,<Null>,<Null>,<Null>,<Null>,10/16/2023 3:33,0000446A,553,2024
87,Point,0000499A, 27/16,CEDAR CREEK,SR 27,CEDAR CREEK,Washington State,Washington State,UNINCORPORATED,Whitman County,EA,46.962612,-117.10714,N,5,<Null>,<Null>,1923,0,33,30,<Null>,2,26,26,0,0,9999,0,4,1,0,0,CTB,1,1,5,0,A,1,3,1,27,20.27,<Null>,B,8,0,N,0,0,7,7,6,Fair,9,5,0,24,4/12/2022,4/12/2024,35,1,33,32,475,251,50,201,502,2022,<Null>,<Null>,<Null>,<Null>,<Null>,<Null>,<Null>,<Null>,<Null>,<Null>,<Null>,10/16/2023 3:33,0000499A,939,2024
88,Point,0000499B, 27/18,SILVER CREEK,SR 27,SILVER CREEK,Washington State,Washington State,UNINCORPORATED,Whitman County,EA,47.003693,-117.13253,N,5,<Null>,<Null>,1922,0,43,40,38,2,24,27,0,0,9999,0,4,1,0,0,CTB,1,1,5,0,A,1,3,1,27,23.76,<Null>,B,8,0,N,0,0,7,6,7,Fair,9,3,0,24,9/7/2022,9/7/2024,35,1,43,26,475,266,53,212,531,2022,<Null>,<Null>,<Null>,<Null>,<Null>,<Null>,<Null>,<Null>,<Null>,<Null>,<Null>,10/16/2023 3:33,0000499B,940,2024
89,Point,0000538A,  6/119,MILL CREEK,SR 6,MILL CREEK,Washington State,Washington State,UNINCORPORATED,Lewis County,SW,46.634167,-123.039612,N,5,<Null>,<Null>,1921,0,42,20,37,2,24,27,0,0,9999,0,1,2,0,0,CS,2,1,5,0,A,1,3,1,6,47.81,<Null>,B,6,1,Y,0,0,7,6,6,Fair,9,5,0,24,4/19/2022,4/19/2024,35,1,42,34,475,339,68,271,678,2022,<Null>,<Null>,<Null>,<Null>,<Null>,<Null>,<Null>,<Null>,<Null>,<Null>,<Null>,10/16/2023 3:33,0000538A,1421,2024
90,Point,0000572A,  7/107,OHOP SL NO 2,SR 7,OHOP SLOUGH,Washington State,Washington State,UNINCORPORATED,Pierce County,OL,46.864326,-122.343781,N,5,<Null>,<Null>,1922,0,77,31,72,2,22,25.3,0,0,9999,0,4,2,0,0,CTB,3,1,5,4,A,1,3,1,7,30.36,<Null>,B,9,1,Y,0,0,6,5,6,Fair,9,5,0,24,9/7/2021,9/7/2023,35,1,77,30,400,462,92,370,924,2014,<Null>,<Null>,<Null>,<Null>,<Null>,<Null>,<Null>,<Null>,<Null>,<Null>,<Null>,10/16/2023 3:33,0000572A,1429,2024
91,Point,0000572B,  7/108,OHOP SL NO 1,SR 7,OHOP SLOUGH,Washington State,Washington State,UNINCORPORATED,Pierce County,OL,46.864555,-122.345863,N,5,<Null>,<Null>,1922,0,77,31,72,2,22,25.3,0,0,9999,0,4,2,0,0,CTB,3,1,5,4,A,1,3,1,7,30.47,<Null>,B,6,1,Y,0,0,6,6,6,Fair,9,5,0,24,9/27/2021,9/27/2023,35,1,77,30,400,462,92,370,924,2014,<Null>,<Null>,<Null>,<Null>,<Null>,<Null>,<Null>,<Null>,<Null>,<Null>,<Null>,10/16/2023 3:33,0000572B,1430,2024
92,Point,0000607A,  6/21,SR 6 OVER ST PARK TRAIL,SR 6,ST PARKS TRAIL (PLUVIUS),Washington State,Washington State,UNINCORPORATED,Pacific County,SW,46.55022,-123.413055,N,5,<Null>,<Null>,1922,0,161,38,99.9,2,20,23.6,0,0,9999,0,4,2,0,0,CTB,5,1,3,4,A,1,3,1,6,21.77,<Null>,B,99,1,Y,0,0,6,5,6,Fair,9,N,0,24,4/27/2022,4/27/2024,35,1,161,33,475,1262,252,1010,2524,2022,<Null>,<Null>,<Null>,<Null>,<Null>,<Null>,<Null>,<Null>,<Null>,<Null>,<Null>,10/16/2023 3:33,0000607A,426,2024
93,Point,000064CE, 14/113,SR 14 OVER CASCADE DR,SR 14,CASCADE DRIVE,Washington State,Washington State,NORTH BONNEVILLE,Skamania County,SW,45.641445,-121.968857,N,5,<Null>,<Null>,1978,0,160,53,99.9,2,44,47,0,0,9999,1500,2,6,0,0,PCG,3,1,1,6,A,1,3,1,14,37.89,<Null>,B,99,1,Y,0,2,7,6,7,Fair,9,N,0,24,4/5/2022,4/5/2024,35,1,160,42,475,1596,319,1277,3192,2022,<Null>,<Null>,<Null>,<Null>,<Null>,<Null>,<Null>,<Null>,<Null>,<Null>,<Null>,10/16/2023 3:33,000064CE,628,2024
94,Point,0000652A,821/15,SELAH CREEK,SR 821,SELAH CREEK,Washington State,Washington State,UNINCORPORATED,Yakima County,SC,46.707848,-120.468475,N,5,<Null>,<Null>,1924,0,45,20,40,2,24,26.5,0,0,9999,0,1,2,0,0,CS,2,1,5,4,A,1,3,1,821,2.35,<Null>,B,52,0,N,0,0,7,6,7,Fair,9,5,0,24,9/30/2021,9/30/2023,35,1,45,40,475,428,86,342,855,2022,<Null>,<Null>,<Null>,<Null>,<Null>,<Null>,<Null>,<Null>,<Null>,<Null>,<Null>,10/16/2023 3:33,0000652A,1478,2024
95,Point,0000858A, 12/254,LUNCH CREEK,US 12,LUNCH CREEK,Washington State,Washington State,UNINCORPORATED,Lewis County,SW,46.536415,-122.116165,N,5,<Null>,<Null>,1924,1964,23,22,20,2,36,39,0.6,0.6,9999,0,1,1,0,0,CS,1,1,5,2,A,1,2,1,12,107.06,<Null>,B,47,1,Y,0,2,7,7,7,Good,9,5,1,24,3/1/2023,3/1/2025,35,1,23,40,475,214,43,171,428,2022,<Null>,<Null>,<Null>,<Null>,<Null>,<Null>,<Null>,<Null>,<Null>,<Null>,<Null>,10/16/2023 3:33,0000858A,557,2024
96,Point,0000902A, 14/38,LAWTON CREEK,SR 14,LAWTON CREEK,Washington State,Washington State,UNINCORPORATED,Clark County,SW,45.561554,-122.266777,N,5,<Null>,<Null>,1925,0,44,20,39,2,24,27.2,0,0,9999,0,1,2,0,0,CS,2,1,5,4,A,1,3,1,14,20.9,<Null>,B,10,1,Y,0,2,7,7,7,Good,9,3,0,24,7/17/2023,7/17/2025,35,1,44,32,475,334,67,268,669,2022,<Null>,<Null>,<Null>,<Null>,<Null>,<Null>,<Null>,<Null>,<Null>,<Null>,<Null>,10/16/2023 3:33,0000902A,645,2024
97,Point,0000948A,101/409,LILLIWAUP R,US 101,LILLIWAUP R,Washington State,Washington State,UNINCORPORATED,Mason County,OL,47.463444,-123.114281,N,5,<Null>,<Null>,1925,0,111,40,99.9,2,24,27.2,0,0,9999,0,4,1,0,0,CTB,3,1,5,0,A,1,2,1,101,327.23,<Null>,B,38,1,Y,0,0,7,7,6,Fair,9,5,2,24,9/27/2021,9/27/2023,35,1,111,40,475,1054,211,844,2109,2022,<Null>,<Null>,<Null>,<Null>,<Null>,<Null>,<Null>,<Null>,<Null>,<Null>,<Null>,10/16/2023 3:33,0000948A,486,2024
98,Point,0000952A, 12/273,HALL CREEK,US 12,HALL CREEK,Washington State,Washington State,UNINCORPORATED,Lewis County,SW,46.579109,-121.688469,N,5,<Null>,<Null>,1928,1962,74,25,69,2,36,40,0,0,9999,0,4,2,0,0,CTB,3,1,5,2,A,1,2,1,12,128.96,<Null>,B,81,1,Y,0,2,7,7,7,Good,9,5,1,24,4/18/2022,4/18/2024,35,1,74,42,475,738,148,590,1476,2022,<Null>,<Null>,<Null>,<Null>,<Null>,<Null>,<Null>,<Null>,<Null>,<Null>,<Null>,10/16/2023 3:33,0000952A,568,2024
99,Point,0000961A, 12/258,KIONA CREEK,US 12,KIONA CREEK,Washington State,Washington State,UNINCORPORATED,Lewis County,SW,46.542976,-122.047195,N,5,<Null>,<Null>,1925,1977,32,30,<Null>,2,40,43,0,0,9999,0,4,1,0,0,CTB PCG CS,1,1,5,4,A,1,2,1,12,110.58,<Null>,B,99,1,Y,0,2,7,7,7,Good,9,5,1,24,9/7/2021,9/7/2023,35,1,32,42,400,269,54,215,538,2014,<Null>,<Null>,<Null>,<Null>,<Null>,<Null>,<Null>,<Null>,<Null>,<Null>,<Null>,10/16/2023 3:33,0000961A,560,2024
100,Point,0000965A,529/10E,SNOHOMISH RIVER BRIDGE,SR 529,SNOHOMISH RIVER,Washington State,Washington State,EVERETT,Snohomish County,NW,48.01215,-122.189423,R,2,4,<Null>,1927,1994,2680,180,99.9,2,24,25,0,3.5,1403,2100,15,3,20,0,SLS STrus CG,1,5,8,4,P,1,3,1,529,3.82,<Null>,I,1,1,Y,0,0,7,4,5,Poor,9,5,0,24,7/19/2022,7/19/2024,35,1,2680,32,475,20368,4074,16294,40736,2022,<Null>,<Null>,<Null>,<Null>,<Null>,<Null>,<Null>,<Null>,<Null>,<Null>,<Null>,10/16/2023 3:33,0000965A,60,2024
101,Point,0000965B,529/15W,UNION SLOUGH,SR 529,UNION SL,Washington State,Washington State,EVERETT,Snohomish County,NW,48.030861,-122.18383,L,5,<Null>,<Null>,1927,0,581,50,99.9,2,24,30.7,0,3.5,9999,0,4,1,0,0,CTB,12,5,5,0,A,1,3,1,529,5.13,<Null>,D,1,1,Y,0,0,6,4,4,Poor,9,5,2,24,6/14/2023,6/14/2025,35,1,581,30,475,4140,828,3312,8279,2022,<Null>,<Null>,<Null>,<Null>,<Null>,<Null>,<Null>,<Null>,<Null>,<Null>,<Null>,10/16/2023 3:33,0000965B,63,2024
102,Point,0000965C,529/20W,STEAMBOAT SLOUGH,SR 529,STEAMBOAT SLOUGH,Washington State,Washington State,MARYSVILLE,Snohomish County,NW,48.034851,-122.182732,L,3,<Null>,<Null>,1927,2003,853,180,99.9,2,24,25.4,0,3.5,1502,1110,17,3,20,0,SSwS STrus CTB,2,5,6,4,B,1,3,1,529,5.42,<Null>,D,1,1,Y,0,0,7,3,6,Poor,9,3,0,24,7/14/2021,7/14/2023,35,1,853,37,475,7496,1499,5996,14991,2022,<Null>,<Null>,<Null>,<Null>,<Null>,<Null>,<Null>,<Null>,<Null>,<Null>,<Null>,10/16/2023 3:33,0000965C,64,2024
103,Point,0001000A, 12/106,SLOUGH,US 12,SLOUGH,Washington State,Washington State,UNINCORPORATED,Thurston County,OL,46.825184,-123.129723,N,5,<Null>,<Null>,1926,1983,45,45,40,2,36,39,0,0,9999,0,4,1,0,0,CTB,1,1,5,2,A,1,2,1,12,40.3,<Null>,B,3,1,Y,0,0,7,6,6,Fair,9,5,1,24,5/25/2022,4/1/2024,35,1,45,38,475,406,81,325,812,2022,<Null>,<Null>,<Null>,<Null>,<Null>,<Null>,<Null>,<Null>,<Null>,<Null>,<Null>,10/16/2023 3:33,0001000A,546,2024
104,Point,0001000B, 12/108,SLOUGH,US 12,SLOUGH,Washington State,Washington State,UNINCORPORATED,Thurston County,OL,46.822773,-123.106705,N,5,<Null>,<Null>,1926,1983,45,45,40,2,36,39,0,0,9999,0,4,1,0,0,CTB,1,1,5,4,A,1,2,1,12,41.4,<Null>,B,5,1,Y,0,0,6,6,6,Fair,9,5,0,24,5/25/2022,4/1/2024,35,1,45,38,475,406,81,325,812,2022,<Null>,<Null>,<Null>,<Null>,<Null>,<Null>,<Null>,<Null>,<Null>,<Null>,<Null>,10/16/2023 3:33,0001000B,547,2024
105,Point,0001000C, 12/111,SCATTER CREEK,US 12,SCATTER CREEK,Washington State,Washington State,UNINCORPORATED,Thurston County,OL,46.816521,-123.067329,N,5,<Null>,<Null>,1926,0,62,20,57,2,24,27,0,0,9999,0,1,2,0,0,CS,3,1,5,4,A,1,2,1,12,43.37,<Null>,B,3,1,Y,0,0,7,6,7,Fair,9,3,0,24,10/25/2022,10/25/2024,35,1,62,34,475,500,100,400,1001,2022,<Null>,<Null>,<Null>,<Null>,<Null>,<Null>,<Null>,<Null>,<Null>,<Null>,<Null>,10/16/2023 3:33,0001000C,548,2024
106,Point,0001047A, 14/107,DUNCAN CR,SR 14,DUNCAN CR,Washington State,Washington State,UNINCORPORATED,Skamania County,SW,45.613213,-122.055016,N,5,<Null>,<Null>,1926,0,44,42,39,2,24,29,5,0.8,9999,0,3,1,0,0,CG,1,5,5,4,A,1,3,1,14,32.87,<Null>,B,99,1,Y,0,2,7,6,6,Fair,9,5,0,24,4/5/2022,4/5/2024,35,1,44,34,475,356,71,284,711,2022,<Null>,<Null>,<Null>,<Null>,<Null>,<Null>,<Null>,<Null>,<Null>,<Null>,<Null>,10/16/2023 3:33,0001047A,626,2024
107,Point,0001084A,101/125W,HOQUIAM RIVER - SIMPSON,US 101,HOQUIAM RIVER,Washington State,Washington State,HOQUIAM,Grays Harbor County,OL,46.975365,-123.873337,L,1,<Null>,<Null>,1928,1948,1980,200,99.9,2,20,25.5,0,5,1606,801,16,3,20,0,BAS STrus CG CSTP,1,5,8,4,P,1,2,1,101COABERDN,87.99,<Null>,I,1,1,Y,0,0,5,4,6,Poor,9,5,0,24,5/1/2023,5/1/2025,35,1,1980,37,475,17399,3480,13919,34798,2022,<Null>,<Null>,<Null>,<Null>,<Null>,<Null>,<Null>,<Null>,<Null>,<Null>,<Null>,10/16/2023 3:33,0001084A,37,2024
108,Point,0001111A, 90/91SF,CHANGE CREEK,HOMESTEAD VLY RD,CHANGE CREEK,Washington State,Washington State,UNINCORPORATED,King County,SC,47.437279,-121.660339,N,4,<Null>,<Null>,1928,0,23,20,20,2,25.5,28,0.6,0.6,9999,0,1,1,0,0,CS,1,1,5,4,A,1,1,8,090FI03775,0.58,<Null>,B,0,0,N,0,0,7,7,7,Good,9,5,0,48,6/22/2020,5/3/2024,35,1,23,26,475,142,28,114,284,2022,<Null>,<Null>,<Null>,<Null>,<Null>,<Null>,<Null>,<Null>,<Null>,<Null>,<Null>,10/16/2023 3:33,0001111A,1574,2024
109,Point,0001111B, 90/92NF,HALL CREEK,ACCESS ROAD,HALL CREEK,Washington State,Washington State,UNINCORPORATED,King County,SC,47.435806,-121.656776,N,4,<Null>,<Null>,1928,0,23,20,20,2,26.8,28.6,0.3,0.3,9999,0,1,1,0,0,CS,1,1,5,2,A,1,8,8,000GEOMETRY,<Null>,<Null>,<Null>,8,0,N,0,0,7,7,7,Good,9,5,0,<Null>,<Null>,<Null>,35,1,23,26,475,142,28,114,284,2022,<Null>,<Null>,<Null>,<Null>,<Null>,<Null>,<Null>,<Null>,<Null>,<Null>,<Null>,10/16/2023 3:33,0001111B,1577,2024
110,Point,0001140A, 90/105S,COAL CREEK,I-90,COAL CREEK,Washington State,Washington State,UNINCORPORATED,Kittitas County,SC,47.392944,-121.389442,R,5,<Null>,<Null>,1928,1972,52,50,47,3,52,54.3,0,0,9999,0,4,1,0,0,CTB,1,1,5,4,A,1,1,1,90,55.15,<Null>,I,1,1,Y,1,0,6,7,6,Fair,9,5,0,24,7/10/2023,7/10/2025,35,1,52,54,475,667,133,534,1334,2022,<Null>,<Null>,<Null>,<Null>,<Null>,<Null>,<Null>,<Null>,<Null>,<Null>,<Null>,10/16/2023 3:33,0001140A,1495,2024
111,Point,0001147A,  6/112.25,HOPE CREEK,SR 6,HOPE CREEK,Washington State,Washington State,UNINCORPORATED,Lewis County,SW,46.631695,-123.2005,N,5,<Null>,<Null>,1928,0,22,20,20,2,25,27,0,0,9999,0,1,1,0,0,CS,1,1,5,4,A,1,3,1,6,36.69,<Null>,B,6,1,Y,0,0,7,7,7,Good,9,5,0,<Null>,<Null>,<Null>,35,1,22,40,475,209,42,167,418,2022,<Null>,<Null>,<Null>,<Null>,<Null>,<Null>,<Null>,<Null>,<Null>,<Null>,<Null>,10/16/2023 3:33,0001147A,1420,2024
112,Point,000120CE, 14/112,HAMILTON CREEK,SR 14,HAMILTON CREEK,Washington State,Washington State,NORTH BONNEVILLE,Skamania County,SW,45.640388,-121.978363,N,5,<Null>,<Null>,1978,0,270,88,99.9,2,44,47,0,0,9999,0,2,6,0,0,PCG,3,1,5,6,A,1,3,1,14,37.43,<Null>,B,99,1,Y,0,0,4,6,7,Poor,9,8,0,24,5/26/2022,5/26/2024,35,1,270,41,475,2629,526,2103,5258,2022,<Null>,<Null>,<Null>,<Null>,<Null>,<Null>,<Null>,<Null>,<Null>,<Null>,<Null>,10/16/2023 3:33,000120CE,8,2024
113,Point,0001212A,  2/226N,WENATCHEE RIVER,US 2,WENATCHEE RIVER,Washington State,Washington State,UNINCORPORATED,Chelan County,NC,47.54636,-120.573166,L,3,<Null>,<Null>,1929,0,353,105,99.9,2,24,34.7,4,4,9999,0,11,2,3,2,CA CG,3,5,5,4,A,1,2,1,2,105.78,<Null>,D,1,1,Y,0,0,3,5,6,Poor,9,3,1,24,9/29/2021,9/29/2023,35,1,353,38,400,2683,537,2146,5366,2014,<Null>,<Null>,<Null>,<Null>,<Null>,<Null>,<Null>,<Null>,<Null>,<Null>,<Null>,10/16/2023 3:33,0001212A,51,2024
114,Point,0001229A,  6/22,ROCK CREEK,SR 6,ROCK CREEK,Washington State,Washington State,UNINCORPORATED,Pacific County,SW,46.546581,-123.386192,N,5,<Null>,<Null>,1928,0,41,38,38.3,2,30,33,0,0,9999,0,4,1,0,0,CTB,1,1,5,0,A,1,3,1,6,23.21,<Null>,B,99,1,Y,0,0,8,7,6,Fair,9,5,1,24,5/30/2023,6/1/2025,35,1,41,32,475,312,62,249,623,2022,<Null>,<Null>,<Null>,<Null>,<Null>,<Null>,<Null>,<Null>,<Null>,<Null>,<Null>,10/16/2023 3:33,0001229A,1427,2024
115,Point,0001236A, 14/109,WOODARD CREEK,SR 14,WOODARD CREEK,Washington State,Washington State,UNINCORPORATED,Skamania County,SW,45.621273,-122.029922,N,5,<Null>,<Null>,1928,0,130,47,99.9,2,24,27.2,0,0,9999,0,4,1,0,0,CTB,3,1,5,4,A,1,3,1,14,34.24,<Null>,B,99,1,Y,0,2,7,6,6,Fair,9,5,0,24,7/17/2023,7/17/2025,35,1,130,32,475,988,198,790,1976,2022,<Null>,<Null>,<Null>,<Null>,<Null>,<Null>,<Null>,<Null>,<Null>,<Null>,<Null>,10/16/2023 3:33,0001236A,627,2024
116,Point,0001259A, 31/38,SULLIVAN CREEK,SR 31,SULLIVAN CREEK,Washington State,Washington State,UNINCORPORATED,Pend Oreille County,EA,48.860306,-117.363617,N,5,<Null>,<Null>,1927,0,180,60,99.9,2,22,25.2,0.8,0.8,9999,0,4,1,0,0,CTB,3,1,5,2,A,1,3,1,31,14.79,<Null>,B,99,1,Y,0,2,7,4,6,Poor,9,3,1,24,8/2/2022,8/2/2024,35,1,180,28,475,1197,239,958,2394,2022,<Null>,<Null>,<Null>,<Null>,<Null>,<Null>,<Null>,<Null>,<Null>,<Null>,<Null>,10/16/2023 3:33,0001259A,124,2024
117,Point,0001287A, 12/278,COAL CREEK,US 12,COAL CREEK,Washington State,Washington State,UNINCORPORATED,Lewis County,SW,46.648804,-121.613586,N,5,<Null>,<Null>,1930,1970,67,34,62,2,40,43,0,0,9999,0,4,1,0,0,CTB,3,1,5,2,A,1,2,1,12,135.16,<Null>,B,60,1,Y,0,2,3,6,7,Poor,9,3,2,24,3/21/2022,3/21/2024,35,1,67,42,475,668,134,535,1337,2022,<Null>,<Null>,<Null>,<Null>,<Null>,<Null>,<Null>,<Null>,<Null>,<Null>,<Null>,10/16/2023 3:33,0001287A,2,2024
118,Point,0001302A,101/212,BRADEN CREEK,US 101,BRADEN CREEK,Washington State,Washington State,UNINCORPORATED,Jefferson County,OL,47.738998,-124.349609,N,5,<Null>,<Null>,1931,0,27,25,<Null>,2,24,26.5,0,0,9999,0,4,1,0,0,CTB,1,1,5,2,A,1,2,1,101,168.91,<Null>,B,99,1,Y,0,0,7,7,7,Good,9,3,0,24,8/22/2022,8/22/2024,35,1,27,30,475,192,38,154,385,2022,<Null>,<Null>,<Null>,<Null>,<Null>,<Null>,<Null>,<Null>,<Null>,<Null>,<Null>,10/16/2023 3:33,0001302A,469,2024
119,Point,0001331A,101/58,SMITH CREEK,US 101,SMITH CREEK,Washington State,Washington State,UNINCORPORATED,Pacific County,SW,46.750004,-123.750397,N,5,<Null>,<Null>,1929,0,115,46,99.9,2,24,27,0,0,9999,0,4,1,0,0,CTB,3,1,5,4,A,1,2,1,101,63.98,<Null>,B,38,1,Y,2,0,7,6,5,Fair,9,3,2,24,5/23/2023,5/23/2025,35,1,115,40,475,1092,218,874,2185,2022,<Null>,<Null>,<Null>,<Null>,<Null>,<Null>,<Null>,<Null>,<Null>,<Null>,<Null>,10/16/2023 3:33,0001331A,250,2024
120,Point,0001331B,101/60,ELKHORN CR,US 101,ELKHORN CR,Washington State,Washington State,UNINCORPORATED,Pacific County,SW,46.768688,-123.748695,N,5,<Null>,<Null>,1929,0,98,46,93,2,24,27,0,0,9999,0,4,1,0,0,CTB,3,1,5,4,A,1,2,1,101,65.37,<Null>,B,38,1,Y,2,0,7,5,6,Fair,9,3,2,24,5/23/2023,5/23/2025,35,1,98,40,475,931,186,745,1862,2022,<Null>,<Null>,<Null>,<Null>,<Null>,<Null>,<Null>,<Null>,<Null>,<Null>,<Null>,10/16/2023 3:33,0001331B,381,2024
121,Point,0001334A,  4/205,ABERNATHY CREEK,SR 4,ABERNATHY CREEK,Washington State,Washington State,UNINCORPORATED,Cowlitz County,SW,46.191082,-123.167999,N,5,<Null>,<Null>,1930,0,170,50,99.9,2,24,27,0,0,9999,0,4,1,0,0,CTB,4,1,5,0,A,1,3,1,4,48.13,<Null>,B,4,1,Y,0,0,7,5,5,Fair,9,3,0,24,8/24/2021,8/24/2023,35,1,170,28,400,952,190,762,1904,2014,<Null>,<Null>,<Null>,<Null>,<Null>,<Null>,<Null>,<Null>,<Null>,<Null>,<Null>,10/16/2023 3:33,0001334A,253,2024
122,Point,0001350A,101/415,CUSHMAN PROJECT,SR 101,CUSHMAN TAILRACE,Washington State,Washington State,UNINCORPORATED,Mason County,OL,47.369873,-123.159447,N,5,<Null>,<Null>,1930,0,71,36,70,2,24,37,5,5,9999,0,4,2,0,0,CTB,2,5,5,2,A,1,2,1,101,334.48,<Null>,B,3,1,Y,0,0,7,6,5,Fair,9,8,3,24,4/10/2023,4/10/2025,35,1,71,28,475,472,94,378,944,2022,<Null>,<Null>,<Null>,<Null>,<Null>,<Null>,<Null>,<Null>,<Null>,<Null>,<Null>,10/16/2023 3:33,0001350A,416,2024
123,Point,0001351A,  6/101,SR 6 OVER ROCK CR/OLD RR,SR 6,ROCK CR NP RY-ABANDONED,Washington State,Washington State,UNINCORPORATED,Lewis County,SW,46.552223,-123.351364,N,5,<Null>,<Null>,1930,0,256,54,99.9,2,24,27,0,0,9999,0,4,2,0,0,CTB,6,1,5,2,A,1,3,1,6,25,<Null>,B,99,1,Y,0,0,6,6,5,Fair,9,5,0,24,5/30/2023,6/1/2025,35,1,256,30,475,1824,365,1459,3648,2022,<Null>,<Null>,<Null>,<Null>,<Null>,<Null>,<Null>,<Null>,<Null>,<Null>,<Null>,10/16/2023 3:33,0001351A,1416,2024
124,Point,0001367C, 97/205,DRAIN CANAL,US 97,DRAIN CANAL,Washington State,Washington State,UNINCORPORATED,Kittitas County,SC,47.025414,-120.597511,N,5,<Null>,<Null>,1930,0,33,15,30,2,27,30.5,0,0,9999,0,1,2,0,0,CS,2,1,5,2,A,1,2,1,97,135.72,<Null>,B,4,1,Y,0,0,7,7,7,Good,9,8,0,24,2/6/2023,2/6/2025,35,1,33,33,475,258,52,207,517,2022,<Null>,<Null>,<Null>,<Null>,<Null>,<Null>,<Null>,<Null>,<Null>,<Null>,<Null>,10/16/2023 3:33,0001367C,1596,2024
125,Point,0001380A,202/54,PATTERSON CREEK,SR 202,PATTERSON CREEK,Washington State,Washington State,UNINCORPORATED,King County,NW,47.579788,-121.93644,N,5,<Null>,<Null>,1930,0,42,40,40,2,28,29,0,0,9999,0,4,1,0,0,CTB,1,1,5,2,A,1,3,1,202,19.23,<Null>,B,1,1,Y,0,0,6,7,7,Fair,9,8,0,24,7/17/2023,7/17/2025,35,1,42,34,475,339,68,271,678,2022,<Null>,<Null>,<Null>,<Null>,<Null>,<Null>,<Null>,<Null>,<Null>,<Null>,<Null>,10/16/2023 3:33,0001380A,845,2024
126,Point,0001403A, 10/142,TEANAWAY RIVER,SR 10,TEANAWAY RIVER,Washington State,Washington State,UNINCORPORATED,Kittitas County,SC,47.168472,-120.833778,N,5,<Null>,<Null>,1930,0,170,104,99.9,2,24,26,0,0,9999,0,10,3,4,1,STrus CTB,1,1,5,2,A,1,3,1,10,89.34,<Null>,B,3,0,N,0,0,3,5,5,Poor,9,3,1,24,9/22/2022,9/22/2024,35,1,170,30,475,1211,242,969,2422,2022,<Null>,<Null>,<Null>,<Null>,<Null>,<Null>,<Null>,<Null>,<Null>,<Null>,<Null>,10/16/2023 3:33,0001403A,77,2024
127,Point,0001403B, 10/145,SWAUK CR,SR 10,SWAUK CR,Washington State,Washington State,UNINCORPORATED,Kittitas County,SC,47.124443,-120.738113,N,5,<Null>,<Null>,1930,0,155,55,99.9,2,27,30,0,0,9999,0,4,2,0,0,CTB,3,1,5,2,A,1,3,1,10,95.39,<Null>,B,21,0,N,0,0,3,5,5,Poor,9,5,0,24,6/21/2023,6/21/2025,35,1,155,30,475,1104,221,884,2209,2022,<Null>,<Null>,<Null>,<Null>,<Null>,<Null>,<Null>,<Null>,<Null>,<Null>,<Null>,10/16/2023 3:33,0001403B,78,2024
128,Point,0001442A,  4/208,HALF BR W OF BUNKER HILL,SR 4,HALF BR W OF BUNKER HILL,Washington State,Washington State,UNINCORPORATED,Cowlitz County,SW,46.189472,-123.136307,N,5,<Null>,<Null>,1930,0,188,12,99.9,2,24,16.9,0,0,9999,0,1,2,0,0,CS,15,1,0,0,A,1,3,1,4,49.75,<Null>,B,99,1,Y,0,0,7,6,6,Fair,9,N,0,24,9/30/2021,9/30/2023,35,1,188,26,475,1161,232,929,2322,2022,<Null>,<Null>,<Null>,<Null>,<Null>,<Null>,<Null>,<Null>,<Null>,<Null>,<Null>,10/16/2023 3:33,0001442A,1009,2024
129,Point,0001442B,  4/209,HALF BR W OF BUNKER HILL,SR 4,HALF BR W OF BUNKER HILL,Washington State,Washington State,UNINCORPORATED,Cowlitz County,SW,46.189095,-123.13446,N,5,<Null>,<Null>,1930,1950,279,29,99.9,2,26,16,0,0,9999,0,2,3,1,2,SRB CS,1,1,0,0,A,1,3,1,4,49.82,<Null>,B,99,1,Y,0,0,7,6,5,Fair,9,N,0,24,9/30/2021,9/30/2023,35,1,279,32,475,2120,424,1696,4241,2022,<Null>,<Null>,<Null>,<Null>,<Null>,<Null>,<Null>,<Null>,<Null>,<Null>,<Null>,10/16/2023 3:33,0001442B,447,2024
130,Point,0001444A, 14/103,HALF BRIDGE,SR 14,HALF BRIDGE,Washington State,Washington State,UNINCORPORATED,Skamania County,SW,45.574917,-122.195,N,5,<Null>,<Null>,1930,0,75,25,70,2,31,17.7,0,0,9999,0,4,2,0,0,CTB,3,1,0,0,A,1,3,1,14,24.92,<Null>,B,9,1,Y,0,2,8,7,3,Poor,9,N,0,24,7/10/2023,7/10/2025,35,1,75,32,475,570,114,456,1140,2022,<Null>,<Null>,<Null>,<Null>,<Null>,<Null>,<Null>,<Null>,<Null>,<Null>,<Null>,10/16/2023 3:33,0001444A,7,2024
131,Point,0001457A,101/217,HOH RIVER,US 101,HOH RIVER,Washington State,Washington State,UNINCORPORATED,Jefferson County,OL,47.80698,-124.249863,N,3,<Null>,<Null>,1931,0,497,250,99.9,2,20,23.3,0.8,0.8,9999,0,9,3,2,1,STrus CG,3,1,5,2,A,1,2,1,101,176.57,<Null>,B,99,1,Y,0,0,6,5,7,Fair,9,8,0,24,6/7/2022,6/7/2024,35,1,497,30,475,3541,708,2833,7082,2022,<Null>,<Null>,<Null>,<Null>,<Null>,<Null>,<Null>,<Null>,<Null>,<Null>,<Null>,10/16/2023 3:33,0001457A,413,2024
132,Point,0001459A, 10/149.25,N BRANCH CANAL-TOWN DTCH,SR 10,CASCADE CANAL,Washington State,Washington State,UNINCORPORATED,Kittitas County,SC,47.063332,-120.648331,N,5,<Null>,<Null>,1930,0,20,18,18,2,27,30,0,0,9999,0,1,1,0,0,CS,1,1,5,0,A,1,3,1,10,101.64,<Null>,B,21,0,N,0,0,7,7,7,Good,9,8,1,<Null>,<Null>,<Null>,35,1,20,44,400,176,35,141,352,2014,<Null>,<Null>,<Null>,<Null>,<Null>,<Null>,<Null>,<Null>,<Null>,<Null>,<Null>,10/16/2023 3:33,0001459A,456,2024
133,Point,0001480A,202/60,SNOQUALMIE RIVER,SR 202,SNOQUALMIE RIVER,Washington State,Washington State,SNOQUALMIE,King County,NW,47.539421,-121.832687,N,3,<Null>,<Null>,1931,0,444,220,99.9,2,24,25,5,5,1510,0,10,3,4,1,STrus CTB,1,5,5,2,A,1,3,1,202,26,<Null>,B,6,1,Y,0,0,5,5,6,Fair,9,3,6,24,9/20/2022,9/20/2024,35,1,444,34,475,3586,717,2868,7171,2022,<Null>,<Null>,<Null>,<Null>,<Null>,<Null>,<Null>,<Null>,<Null>,<Null>,<Null>,10/16/2023 3:33,0001480A,288,2024
134,Point,0001490A,  6/108,JONES CREEK,SR 6,JONES CREEK,Washington State,Washington State,UNINCORPORATED,Lewis County,SW,46.595722,-123.279305,N,5,<Null>,<Null>,1931,0,40,37,35,2,24,27,0,0,9999,0,4,1,0,0,CTB,1,1,5,0,A,1,3,1,6,30.37,<Null>,B,99,1,Y,0,0,7,7,7,Good,9,3,0,24,9/14/2022,9/14/2024,35,1,40,32,475,304,61,243,608,2022,<Null>,<Null>,<Null>,<Null>,<Null>,<Null>,<Null>,<Null>,<Null>,<Null>,<Null>,10/16/2023 3:33,0001490A,1418,2024
135,Point,0001492A, 14/221,SIDEHILL VIADUCT,SR 14,HALF BRIDGE,Washington State,Washington State,UNINCORPORATED,Klickitat County,SW,45.648529,-121.104805,N,5,<Null>,<Null>,1931,0,42,40,37,2,28,29.6,0,0,9999,0,2,3,0,0,SRB,1,1,0,2,A,1,3,1,14,86.03,<Null>,B,35,1,Y,0,2,7,7,6,Fair,9,N,0,24,5/25/2022,5/25/2024,35,1,42,32,475,319,64,255,638,2022,<Null>,<Null>,<Null>,<Null>,<Null>,<Null>,<Null>,<Null>,<Null>,<Null>,<Null>,10/16/2023 3:33,0001492A,1623,2024
136,Point,0001492B, 14/222,HORSETHIEF CANYON,SR 14,HORSETHIEF CANYON,Washington State,Washington State,UNINCORPORATED,Klickitat County,SW,45.648937,-121.103104,N,2,<Null>,<Null>,1931,0,92,52,89.8,2,24,27.2,0,0,9999,0,11,1,1,2,CA CS,1,1,5,2,A,1,3,1,14,86.12,<Null>,B,35,1,Y,0,2,7,7,7,Good,9,9,0,24,3/27/2023,3/27/2025,35,1,92,32,475,699,140,559,1398,2022,<Null>,<Null>,<Null>,<Null>,<Null>,<Null>,<Null>,<Null>,<Null>,<Null>,<Null>,10/16/2023 3:33,0001492B,641,2024
137,Point,0001494A,542/30,N FK NOOKSACK R  WARNICK,SR 542,N FK NOOKSACK R  WARNICK,Washington State,Washington State,UNINCORPORATED,Whatcom County,NW,48.904953,-121.992172,N,2,<Null>,<Null>,1931,0,251,150,99.9,2,20,21,0,3.7,1603,0,10,3,4,1,STrus CG,1,5,5,2,A,1,3,1,542,30.87,<Null>,B,99,0,Y,0,2,7,5,6,Fair,9,3,0,24,6/16/2022,6/16/2024,35,1,251,28,475,1669,334,1335,3338,2022,<Null>,<Null>,<Null>,<Null>,<Null>,<Null>,<Null>,<Null>,<Null>,<Null>,<Null>,10/16/2023 3:33,0001494A,294,2024
138,Point,0001494B,542/31,CORNELL CREEK,SR 542,CORNELL CREEK,Washington State,Washington State,UNINCORPORATED,Whatcom County,NW,48.892204,-121.962578,N,5,<Null>,<Null>,1931,0,121,60,99.9,2,23,28,0,0,9999,0,4,1,0,0,CTB,3,1,5,2,A,1,3,1,542,32.51,<Null>,B,99,0,Y,0,2,3,6,6,Poor,9,5,0,24,6/7/2022,6/7/2024,35,1,121,32,475,920,184,736,1839,2022,<Null>,<Null>,<Null>,<Null>,<Null>,<Null>,<Null>,<Null>,<Null>,<Null>,<Null>,10/16/2023 3:33,0001494B,135,2024
139,Point,0001496A, 11/7,SR 11 OVER RR -BLANCHARD,SR 11,"GN RY, COLONY CREEK",Washington State,Washington State,UNINCORPORATED,Skagit County,NW,48.598057,-122.422249,N,5,<Null>,<Null>,1931,0,883,66,99.9,2,27,34.3,4,0,9999,2202,4,2,0,0,CTB,18,5,7,2,A,1,3,1,11,9.15,<Null>,B,29,0,N,0,0,6,6,5,Fair,9,8,0,24,7/24/2023,7/24/2025,35,1,883,28,475,5872,1174,4698,11744,2022,<Null>,<Null>,<Null>,<Null>,<Null>,<Null>,<Null>,<Null>,<Null>,<Null>,<Null>,10/16/2023 3:33,0001496A,524,2024
140,Point,0001504A, 12/669,TOUCHET R  WAITSBURG,US 12,TOUCHET RIVER,Washington State,Washington State,WAITSBURG,Walla Walla County,SC,46.270138,-118.151253,N,5,<Null>,<Null>,1931,0,167,54,99.9,2,24,34.5,4,4,9999,0,4,2,0,0,CTB,3,5,5,2,A,1,2,1,12,357.68,<Null>,B,1,1,Y,0,0,8,6,7,Fair,9,3,2,24,6/13/2023,6/13/2025,35,1,167,34,475,1348,270,1079,2697,2022,<Null>,<Null>,<Null>,<Null>,<Null>,<Null>,<Null>,<Null>,<Null>,<Null>,<Null>,10/16/2023 3:33,0001504A,601,2024
141,Point,0001513A, 21/311,SAN POIL R,SR 21,SAN POIL R,Washington State,Washington State,UNINCORPORATED,Ferry County,EA,48.268433,-118.701668,N,5,<Null>,<Null>,1931,0,46,44,41,2,24,26.6,0,0,9999,0,4,1,0,0,CTB,1,1,5,2,A,1,3,1,21,130.74,<Null>,B,99,0,Y,0,1,3,7,6,Poor,9,3,1,24,8/30/2021,9/1/2023,35,1,46,28,400,258,52,206,515,2014,<Null>,<Null>,<Null>,<Null>,<Null>,<Null>,<Null>,<Null>,<Null>,<Null>,<Null>,10/16/2023 3:33,0001513A,108,2024
142,Point,0001513B, 21/312,SAN POIL RIVER,SR 21,SAN POIL RIVER,Washington State,Washington State,UNINCORPORATED,Ferry County,EA,48.275833,-118.715469,N,5,<Null>,<Null>,1931,0,48,44,43,2,24,27.1,0,0,9999,0,4,1,0,0,CTB,1,1,5,2,A,1,3,1,21,131.62,<Null>,B,60,0,Y,0,1,4,7,6,Poor,9,3,1,24,8/30/2021,9/1/2023,35,1,48,28,400,269,54,215,538,2014,<Null>,<Null>,<Null>,<Null>,<Null>,<Null>,<Null>,<Null>,<Null>,<Null>,<Null>,10/16/2023 3:33,0001513B,109,2024
143,Point,0001528A,  7/12,TILTON RIVER,SR 7,TILTON RIVER,Washington State,Washington State,UNINCORPORATED,Lewis County,SW,46.605,-122.233109,N,5,<Null>,<Null>,1931,0,38,36,33,2,24,26.6,0,0,9999,0,4,1,0,0,CTB,1,1,5,2,A,1,3,1,7,4.52,<Null>,B,25,1,Y,0,0,3,6,6,Poor,9,3,1,24,3/1/2023,3/1/2025,35,1,38,30,475,271,54,217,542,2022,<Null>,<Null>,<Null>,<Null>,<Null>,<Null>,<Null>,<Null>,<Null>,<Null>,<Null>,10/16/2023 3:33,0001528A,30,2024
144,Point,0001558A,  6/105,CHEHALIS RIVER,SR 6,CHEHALIS R,Washington State,Washington State,UNINCORPORATED,Lewis County,SW,46.569473,-123.30439,N,3,<Null>,<Null>,1931,0,324,184,99.9,2,24,34.5,4,4,9999,0,11,1,1,2,CA CS,1,5,5,2,A,1,3,1,6,27.99,<Null>,B,1,1,Y,0,0,6,6,6,Fair,9,8,1,24,6/13/2023,6/13/2025,35,1,324,40,475,3078,616,2462,6156,2022,<Null>,<Null>,<Null>,<Null>,<Null>,<Null>,<Null>,<Null>,<Null>,<Null>,<Null>,10/16/2023 3:33,0001558A,1417,2024
145,Point,0001571A,410/255,NACHES-SELAH CANAL,SR 410,NACHES-SELAH CANAL,Washington State,Washington State,UNINCORPORATED,Yakima County,SC,46.74847,-120.797997,N,5,<Null>,<Null>,1932,0,40,36,35,2,24,26.6,0,0,9999,0,4,1,0,0,CTB,1,1,5,2,A,1,3,1,410,115.92,<Null>,B,99,0,Y,0,2,7,7,7,Good,9,5,0,48,2/6/2023,2/6/2027,35,1,40,32,475,304,61,243,608,2022,<Null>,<Null>,<Null>,<Null>,<Null>,<Null>,<Null>,<Null>,<Null>,<Null>,<Null>,10/16/2023 3:33,0001571A,1064,2024
146,Point,0001576B, 12/73,US 12 OVER RR,US 12,RAILROAD,Washington State,Washington State,UNINCORPORATED,Grays Harbor County,OL,46.847935,-123.248558,N,5,<Null>,<Null>,1932,0,163,54,99.9,2,24,27,0,0,9999,2207,4,1,0,0,CTB,3,1,2,2,A,1,2,1,12,34.25,<Null>,B,5,1,Y,0,0,6,5,6,Fair,9,N,0,24,4/4/2022,4/4/2024,35,1,163,36,475,1394,279,1115,2787,2022,<Null>,<Null>,<Null>,<Null>,<Null>,<Null>,<Null>,<Null>,<Null>,<Null>,<Null>,10/16/2023 3:33,0001576B,299,2024
147,Point,0001576C, 12/76,BLACK RIVER,US 12,BLACK RIVER,Washington State,Washington State,UNINCORPORATED,Grays Harbor County,OL,46.830284,-123.186142,N,3,<Null>,<Null>,1932,0,169,104,99.9,2,24,26,0.5,0.5,9999,0,10,3,4,1,STrus CTB,1,1,5,2,A,1,2,1,12,37.59,<Null>,B,5,1,Y,0,1,6,5,7,Fair,9,3,1,24,4/4/2022,4/4/2024,35,1,169,34,475,1364,273,1092,2729,2022,<Null>,<Null>,<Null>,<Null>,<Null>,<Null>,<Null>,<Null>,<Null>,<Null>,<Null>,10/16/2023 3:33,0001576C,328,2024
148,Point,0001583A, 82/114N,YAKIMA RIVER,I-82,YAKIMA RIVER,Washington State,Washington State,UNINCORPORATED,Yakima County,SC,46.631535,-120.51754,L,5,<Null>,<Null>,1932,0,317,223,99.9,3,36,36.8,5,5,1603,0,10,3,4,1,STrus CTB,1,5,5,2,P,1,1,1,82,30.78,<Null>,D,1,1,Y,1,0,6,5,6,Fair,9,3,0,24,6/14/2023,6/14/2025,35,1,317,39,475,2936,587,2349,5872,2022,<Null>,<Null>,<Null>,<Null>,<Null>,<Null>,<Null>,<Null>,<Null>,<Null>,<Null>,10/16/2023 3:33,0001583A,373,2024
149,Point,0001583B, 82/115N,NACHES RIVER,I-82,NACHES RIVER,Washington State,Washington State,UNINCORPORATED,Yakima County,SC,46.630363,-120.515602,L,5,<Null>,<Null>,1932,0,276,180,99.9,3,36,38,5,5,1509,0,10,3,4,1,STrus CTB,1,5,5,2,P,1,1,1,82,30.9,<Null>,D,1,1,Y,1,0,6,5,7,Fair,9,3,0,24,6/13/2023,6/13/2025,35,1,276,42,475,2753,551,2202,5506,2022,<Null>,<Null>,<Null>,<Null>,<Null>,<Null>,<Null>,<Null>,<Null>,<Null>,<Null>,10/16/2023 3:33,0001583B,341,2024
150,Point,0001599B,410/120.25,EAST TWIN CREEK,SR 410,EAST TWIN CREEK,Washington State,Washington State,UNINCORPORATED,King County,NW,47.16375,-121.740219,N,5,<Null>,<Null>,1932,0,19,15,16,2,24,34,4,4,9999,0,1,1,0,0,CS,1,5,5,0,A,1,3,1,410,38.56,<Null>,B,99,1,Y,0,2,7,7,7,Good,9,5,0,<Null>,<Null>,<Null>,35,1,19,30,475,136,27,108,271,2022,<Null>,<Null>,<Null>,<Null>,<Null>,<Null>,<Null>,<Null>,<Null>,<Null>,<Null>,10/16/2023 3:33,0001599B,1062,2024
151,Point,0001603A, 12/329,COWICHE CREEK,US 12,COWICHE CREEK,Washington State,Washington State,UNINCORPORATED,Yakima County,SC,46.62767,-120.577568,N,5,<Null>,<Null>,1932,1970,53,50,48,4,84,86.4,0.1,0.1,9999,0,4,1,0,0,CTB,1,1,5,2,A,1,2,1,12,199.21,<Null>,B,13,1,Y,0,0,7,7,7,Good,9,8,0,24,6/19/2023,6/19/2025,35,1,53,86,475,1082,216,866,2165,2022,<Null>,<Null>,<Null>,<Null>,<Null>,<Null>,<Null>,<Null>,<Null>,<Null>,<Null>,10/16/2023 3:33,0001603A,576,2024
152,Point,0001604A,101/418,SKOKOMISH RIVER,US 101,SKOKOMISH RIVER,Washington State,Washington State,UNINCORPORATED,Mason County,OL,47.310471,-123.176498,N,3,<Null>,<Null>,1932,0,405,240,99.9,2,24,26,5,5,1602,0,10,3,4,1,STrus CTB,1,5,5,2,A,1,2,1,101,338.77,<Null>,B,7,1,Y,0,1,7,6,7,Fair,9,5,0,24,10/6/2021,10/6/2023,35,1,405,36,475,3463,693,2770,6926,2022,<Null>,<Null>,<Null>,<Null>,<Null>,<Null>,<Null>,<Null>,<Null>,<Null>,<Null>,10/16/2023 3:33,0001604A,1741,2024
153,Point,0001649A,  2/35,SKYKOMISH R,US 2,SKYKOMISH R,Washington State,Washington State,UNINCORPORATED,Snohomish County,NW,47.8377,-121.658028,N,5,<Null>,<Null>,1932,0,577,200,99.9,2,24,33,3.2,3.2,9999,0,9,3,3,3,STrus SG,3,5,5,2,A,1,2,1,2,30.28,<Null>,B,99,1,Y,0,2,6,6,6,Fair,9,7,1,24,9/28/2021,9/28/2023,35,1,577,36,475,4934,987,3947,9867,2022,<Null>,<Null>,<Null>,<Null>,<Null>,<Null>,<Null>,<Null>,<Null>,<Null>,<Null>,10/16/2023 3:33,0001649A,799,2024
154,Point,0001658A,153/3,METHOW RIVER,SR 153,METHOW RIVER,Washington State,Washington State,UNINCORPORATED,Okanogan County,NC,48.074162,-119.956337,N,5,<Null>,<Null>,1933,0,292,53,99.9,2,25.5,28.5,0,0,9999,0,4,2,0,0,CTB,6,1,5,2,A,1,3,1,153,3.65,<Null>,B,23,1,Y,0,0,6,4,6,Poor,9,3,1,24,10/10/2022,10/10/2024,35,1,292,32,475,2219,444,1775,4438,2022,<Null>,<Null>,<Null>,<Null>,<Null>,<Null>,<Null>,<Null>,<Null>,<Null>,<Null>,10/16/2023 3:33,0001658A,89,2024
155,Point,0001667A,  2/40,S FK SKYKOMISH RIVER,US 2,S FK SKYKOMISH RIVER,Washington State,Washington State,UNINCORPORATED,Snohomish County,NW,47.812454,-121.578796,N,5,<Null>,<Null>,1933,0,446,240,99.9,2,24,25,4,0,1605,0,10,3,4,2,STrus CTB,1,5,5,2,A,1,2,1,2,35.21,<Null>,B,99,1,Y,0,2,4,6,6,Poor,9,3,1,24,4/5/2022,4/5/2024,35,1,446,30,475,3178,636,2542,6356,2022,<Null>,<Null>,<Null>,<Null>,<Null>,<Null>,<Null>,<Null>,<Null>,<Null>,<Null>,10/16/2023 3:33,0001667A,18,2024
156,Point,0001669A, 99/569,SR 99 OVER N 46TH ST,SR 99,N 46TH ST,Washington State,Washington State,SEATTLE,King County,NW,47.661907,-122.347343,N,5,<Null>,<Null>,1933,0,92,52,87,6,76,96.4,8,8,9999,1403,4,2,0,0,CTB,3,5,1,0,A,1,3,1,99,35.46,<Null>,B,1,1,Y,0,0,7,6,6,Fair,9,N,3,24,3/7/2022,3/7/2024,35,1,92,85,475,1857,371,1486,3714,2022,<Null>,<Null>,<Null>,<Null>,<Null>,<Null>,<Null>,<Null>,<Null>,<Null>,<Null>,10/16/2023 3:33,0001669A,1620,2024
157,Point,0001679A, 12/15,ABERDEEN VIADUCT,US 12,TERRAIN,Washington State,Washington State,ABERDEEN,Grays Harbor County,OL,46.978241,-123.791389,N,4,<Null>,<Null>,1933,1994,142,44,99.9,4,61.3,68.6,0,0,9999,0,4,1,0,0,CTB,5,1,0,2,A,1,2,1,12,1.09,<Null>,B,25,1,Y,2,0,7,7,7,Good,9,N,2,24,4/19/2022,4/19/2024,35,1,142,73,475,2462,492,1970,4924,2022,<Null>,<Null>,<Null>,<Null>,<Null>,<Null>,<Null>,<Null>,<Null>,<Null>,<Null>,10/16/2023 3:33,0001679A,550,2024
158,Point,0001687B, 12/713,US 12 OVER WAREHOUSE YARD,US 12,WAREHOUSE YARD,Washington State,Washington State,UNINCORPORATED,Columbia County,SC,46.325249,-117.972664,N,4,4,<Null>,1933,0,263,54,99.9,2,24,33,0,3.7,9999,2007,4,1,0,0,CTB,6,5,0,2,A,1,2,1,12,367.73,<Null>,B,0,1,Y,0,0,7,5,4,Poor,9,N,0,24,2/7/2023,2/7/2025,35,1,263,32,475,1999,400,1599,3998,2022,<Null>,<Null>,<Null>,<Null>,<Null>,<Null>,<Null>,<Null>,<Null>,<Null>,<Null>,10/16/2023 3:33,0001687B,5,2024
159,Point,0001687C, 12/714,PATIT CREEK,US 12,PATIT CREEK,Washington State,Washington State,DAYTON,Columbia County,SC,46.327137,-117.974304,N,5,<Null>,<Null>,1933,0,44,42,39,2,24,31,0,3.3,9999,0,4,1,0,0,CTB,1,5,5,2,A,1,2,1,12,367.89,<Null>,B,6,1,Y,0,0,7,6,6,Fair,9,5,1,24,2/7/2023,2/7/2025,35,1,44,30,475,314,63,251,627,2022,<Null>,<Null>,<Null>,<Null>,<Null>,<Null>,<Null>,<Null>,<Null>,<Null>,<Null>,10/16/2023 3:33,0001687C,607,2024
160,Point,0001706A,  2/37,PROCTOR CREEK,US 2,PROCTOR CREEK,Washington State,Washington State,UNINCORPORATED,Snohomish County,NW,47.834007,-121.644913,N,5,<Null>,<Null>,1933,0,135,80,99.9,2,25,32,4,0,9999,0,2,4,0,0,SRB,3,5,5,2,A,1,2,1,2,31.07,<Null>,B,99,1,Y,0,2,6,6,6,Fair,9,3,1,24,4/5/2022,4/5/2024,35,1,135,35,475,1122,224,898,2244,2022,<Null>,<Null>,<Null>,<Null>,<Null>,<Null>,<Null>,<Null>,<Null>,<Null>,<Null>,10/16/2023 3:33,0001706A,1749,2024
161,Point,0001706B,  2/38,NO NAME CREEK,US 2,NO NAME CREEK,Washington State,Washington State,UNINCORPORATED,Snohomish County,NW,47.821415,-121.613808,N,5,<Null>,<Null>,1933,0,93,39,88,2,24,30.9,3.5,0,9999,0,4,1,0,0,CTB,3,5,5,2,A,1,2,1,2,33.34,<Null>,B,99,1,Y,0,2,4,7,7,Poor,9,5,1,24,3/9/2022,3/9/2024,35,1,93,36,475,795,159,636,1590,2022,<Null>,<Null>,<Null>,<Null>,<Null>,<Null>,<Null>,<Null>,<Null>,<Null>,<Null>,10/16/2023 3:33,0001706B,17,2024
162,Point,0001724B, 12/620,US 12 OVER NINE MI CR/RR,US 12,NINE MILE CR & RR,Washington State,Washington State,UNINCORPORATED,Walla Walla County,SC,46.071583,-118.781914,N,5,<Null>,<Null>,1933,1988,213,47,99.9,2,32,35,0,0,9999,2304,2,1,0,0,CTB,6,1,7,2,A,1,2,1,12,314.16,<Null>,B,31,1,Y,0,0,4,7,5,Poor,9,5,0,24,5/9/2023,5/9/2025,35,1,213,34,475,1720,344,1376,3440,2022,<Null>,<Null>,<Null>,<Null>,<Null>,<Null>,<Null>,<Null>,<Null>,<Null>,<Null>,10/16/2023 3:33,0001724B,45,2024
163,Point,0001727A, 14/212,KLICKITAT RIVER,SR 14,KLICKITAT RIVER,Washington State,Washington State,UNINCORPORATED,Klickitat County,SW,45.696945,-121.291779,N,3,<Null>,<Null>,1933,0,265,156,99.9,2,24,34.5,3.6,3.6,9999,0,11,1,1,2,CA CS,1,5,5,2,A,1,3,1,14,75.76,<Null>,B,9,1,Y,0,2,8,6,6,Fair,9,9,1,24,7/11/2023,7/11/2025,35,1,265,34,475,2140,428,1712,4280,2022,<Null>,<Null>,<Null>,<Null>,<Null>,<Null>,<Null>,<Null>,<Null>,<Null>,<Null>,10/16/2023 3:33,0001727A,640,2024
164,Point,0001743A, 97/406,DRY GULCH,US 97,DRY GULCH,Washington State,Washington State,UNINCORPORATED,Douglas County,NC,47.677513,-120.197441,N,5,<Null>,<Null>,1933,1988,42,40,40,2,36,39,0,0,9999,0,4,1,0,0,CTB,1,1,5,2,A,1,2,1,97,217.23,<Null>,B,24,1,Y,0,0,7,7,7,Good,9,5,1,24,7/12/2023,7/12/2025,35,1,42,41,475,409,82,327,818,2022,<Null>,<Null>,<Null>,<Null>,<Null>,<Null>,<Null>,<Null>,<Null>,<Null>,<Null>,10/16/2023 3:33,0001743A,1603,2024
165,Point,0001743B, 97/408,FARM ACCESS,US 97,DRIVEWAY,Washington State,Washington State,UNINCORPORATED,Douglas County,NC,47.704182,-120.194847,N,5,<Null>,<Null>,1933,1978,42,40,37,2,36.5,39,0,0,9999,0,4,1,0,0,CTB,1,1,0,0,A,1,2,1,97,219.2,<Null>,B,24,1,Y,0,0,7,7,7,Good,9,N,0,24,7/13/2022,7/13/2024,35,1,42,40,475,399,80,319,798,2022,<Null>,<Null>,<Null>,<Null>,<Null>,<Null>,<Null>,<Null>,<Null>,<Null>,<Null>,10/16/2023 3:33,0001743B,1604,2024
166,Point,0001745A, 31/42,SLATE CREEK,SR 31,SLATE CREEK,Washington State,Washington State,UNINCORPORATED,Pend Oreille County,EA,48.929192,-117.307091,N,5,<Null>,<Null>,1933,0,216,80,99.9,2,27,30.2,0,0,9999,0,3,3,2,3,SG,1,1,5,2,A,1,3,1,31,21.04,<Null>,B,99,1,Y,0,2,7,6,5,Fair,9,8,0,24,8/2/2022,8/2/2024,35,1,216,28,475,1436,287,1149,2873,2022,<Null>,<Null>,<Null>,<Null>,<Null>,<Null>,<Null>,<Null>,<Null>,<Null>,<Null>,10/16/2023 3:33,0001745A,361,2024
167,Point,0001758A,  2/503,CORBETT DRAW,US 2,CORBETT DRAW,Washington State,Washington State,ALMIRA,Lincoln County,EA,47.710529,-118.925697,N,5,<Null>,<Null>,1933,0,111,40,99.9,2,24.1,26,0,0,9999,0,4,1,0,0,CTB,3,1,5,2,A,1,2,1,2,210.55,<Null>,B,2,1,Y,0,0,6,6,6,Fair,9,5,0,24,4/17/2023,4/17/2025,35,1,111,30,475,791,158,633,1582,2022,<Null>,<Null>,<Null>,<Null>,<Null>,<Null>,<Null>,<Null>,<Null>,<Null>,<Null>,10/16/2023 3:33,0001758A,801,2024
168,Point,0001784A,167/13,SR 167 OVER RAILROAD,SR 167,BNSF RR,Washington State,Washington State,TACOMA,Pierce County,OL,47.237263,-122.396454,N,5,<Null>,<Null>,1934,0,211,47,99.9,4,48,58,4,4,9999,2409,4,2,0,0,CTB,5,5,2,2,A,1,3,1,167,0.64,<Null>,B,1,1,Y,0,0,5,4,4,Poor,9,N,1,24,10/22/2022,10/22/2024,35,1,211,58,475,2906,581,2325,5813,2022,<Null>,<Null>,<Null>,<Null>,<Null>,<Null>,<Null>,<Null>,<Null>,<Null>,<Null>,10/16/2023 3:33,0001784A,46,2024
169,Point,0001810A, 20/905,LOST CREEK,SR 20,LOST CREEK,Washington State,Washington State,UNINCORPORATED,Pend Oreille County,EA,48.612972,-117.366081,N,5,<Null>,<Null>,1934,0,64,15,59,2,26,27,0,0,9999,0,2,7,0,0,TTC,4,1,5,2,A,1,3,1,20,395.8,<Null>,B,13,1,Y,0,0,7,5,5,Fair,9,8,1,24,8/3/2022,8/3/2024,35,1,64,33,475,502,100,401,1003,2022,<Null>,<Null>,<Null>,<Null>,<Null>,<Null>,<Null>,<Null>,<Null>,<Null>,<Null>,10/16/2023 3:33,0001810A,354,2024
170,Point,0001812A, 28/208,CRAB CREEK,SR 28,CRAB CREEK,Washington State,Washington State,ODESSA,Lincoln County,EA,47.333138,-118.6875,N,5,<Null>,<Null>,1934,0,107,32,99.9,2,24,34.7,4,4,9999,0,1,2,0,0,CS,3,5,5,2,A,1,3,1,28,93.94,<Null>,B,10,1,Y,0,0,7,7,7,Good,9,7,1,24,8/16/2022,8/16/2024,35,1,107,60,475,1525,305,1220,3050,2022,<Null>,<Null>,<Null>,<Null>,<Null>,<Null>,<Null>,<Null>,<Null>,<Null>,<Null>,10/16/2023 3:33,0001812A,957,2024
171,Point,0001856A,101/18,GREENHEAD SLOUGH,US 101,GREENHEAD SLOUGH,Washington State,Washington State,UNINCORPORATED,Pacific County,SW,46.371803,-123.950165,N,5,<Null>,<Null>,1934,0,534,19,99.9,2,24.5,26,0,0,9999,0,2,7,0,0,TTC,28,1,5,2,A,1,2,1,101,20.32,<Null>,B,41,1,Y,0,0,3,6,5,Poor,9,5,0,24,5/24/2022,5/24/2024,35,1,534,40,475,5073,1015,4058,10146,2022,<Null>,<Null>,<Null>,<Null>,<Null>,<Null>,<Null>,<Null>,<Null>,<Null>,<Null>,10/16/2023 3:33,0001856A,72,2024
172,Point,0001856B,101/22,TEAL SLOUGH,US 101,TEAL SLOUGH,Washington State,Washington State,UNINCORPORATED,Pacific County,SW,46.428192,-123.91819,N,5,<Null>,<Null>,1934,0,287,19,99.9,2,23.7,24.3,0,0,9999,0,2,7,0,0,TTC,15,1,5,2,A,1,2,1,101,25.56,<Null>,B,41,1,Y,0,0,6,6,5,Fair,9,8,1,24,5/23/2022,5/23/2024,35,1,287,32,475,2181,436,1745,4362,2022,<Null>,<Null>,<Null>,<Null>,<Null>,<Null>,<Null>,<Null>,<Null>,<Null>,<Null>,10/16/2023 3:33,0001856B,443,2024
173,Point,0001891A,  4/108,HULL CREEK,SR 4,HULL CREEK,Washington State,Washington State,UNINCORPORATED,Wahkiakum County,SW,46.356182,-123.605164,N,5,<Null>,<Null>,1934,0,78,19,73,2,24.6,26.3,0,0,9999,0,2,7,0,0,TTC,4,1,5,2,A,1,3,1,4,17.36,<Null>,B,2,1,Y,0,0,7,7,4,Poor,9,5,3,24,8/23/2021,8/23/2023,35,1,78,30,475,556,111,445,1112,2022,<Null>,<Null>,<Null>,<Null>,<Null>,<Null>,<Null>,<Null>,<Null>,<Null>,<Null>,10/16/2023 3:33,0001891A,127,2024
174,Point,0001915A, 14/137,SR 14 OVER RAILROAD,SR 14,SP S RY,Washington State,Washington State,UNINCORPORATED,Skamania County,SW,45.72464,-121.558167,N,5,<Null>,<Null>,1934,0,158,65,99.9,2,24,30.5,3,0,9999,2200,4,2,0,0,CTB,3,5,2,2,A,1,3,1,14,61.62,<Null>,B,20,1,Y,0,2,7,7,7,Good,9,N,0,24,7/18/2023,7/18/2025,35,1,158,32,475,1201,240,961,2402,2022,<Null>,<Null>,<Null>,<Null>,<Null>,<Null>,<Null>,<Null>,<Null>,<Null>,<Null>,10/16/2023 3:33,0001915A,635,2024
175,Point,0001929A, 20/204,DECEPTION PASS,SR 20,DECEPTION PASS,Washington State,Washington State,UNINCORPORATED,Island County,NW,48.407223,-122.644554,N,1,<Null>,<Null>,1935,0,976,550,99.9,2,22,30,2.8,2.8,9999,0,9,3,4,2,STrus CTB,3,5,5,2,A,1,3,1,20,41.81,<Null>,B,99,1,Y,3,0,6,5,7,Fair,9,9,2,24,2/6/2023,2/6/2025,35,1,976,34,475,7881,1576,6305,15762,2022,<Null>,<Null>,<Null>,<Null>,<Null>,<Null>,<Null>,<Null>,<Null>,<Null>,<Null>,10/16/2023 3:33,0001929A,269,2024
176,Point,0001935A, 22/6,YAKIMA R,SR 22,YAKIMA R,Washington State,Washington State,UNINCORPORATED,Yakima County,SC,46.410969,-120.314331,N,5,<Null>,<Null>,1935,0,545,90,99.9,2,24,30,3.5,0,9999,0,2,4,0,0,SRB,6,5,5,2,A,1,3,1,22,1.1,<Null>,B,8,1,Y,0,1,6,5,6,Fair,9,5,0,24,9/23/2021,9/23/2023,35,1,545,34,475,4401,880,3521,8802,2022,<Null>,<Null>,<Null>,<Null>,<Null>,<Null>,<Null>,<Null>,<Null>,<Null>,<Null>,10/16/2023 3:33,0001935A,899,2024
177,Point,0001949A, 12/25,WYNOOCHEE RIVER,US 12,WYNOOCHEE RIVER,Washington State,Washington State,UNINCORPORATED,Grays Harbor County,OL,46.976582,-123.643944,N,5,<Null>,<Null>,1935,0,286,200,99.9,4,44,45.5,0,0,1603,0,10,3,2,3,STrus SRB,1,1,5,2,A,1,2,1,12,8.33,<Null>,B,7,1,Y,2,0,3,4,6,Poor,9,3,0,24,6/7/2023,6/7/2025,35,1,286,62,475,4212,842,3369,8423,2022,<Null>,<Null>,<Null>,<Null>,<Null>,<Null>,<Null>,<Null>,<Null>,<Null>,<Null>,10/16/2023 3:33,0001949A,42,2024
178,Point,0002031E,101/158,BOULDER CR,US 101,BOULDER CR,Washington State,Washington State,UNINCORPORATED,Grays Harbor County,OL,47.425831,-123.876442,N,5,<Null>,<Null>,1936,0,47,15,43,2,27,28.5,0,0,9999,0,2,7,0,0,TTC,3,1,5,2,A,1,2,1,101,124.02,<Null>,B,99,1,Y,0,0,7,6,6,Fair,9,U,0,24,8/3/2023,7/15/2025,35,1,47,32,475,357,71,286,714,2022,<Null>,<Null>,<Null>,<Null>,<Null>,<Null>,<Null>,<Null>,<Null>,<Null>,<Null>,10/16/2023 3:33,0002031E,463,2024
179,Point,0002042A, 14/131,GULCH,SR 14,GULCH,Washington State,Washington State,UNINCORPORATED,Skamania County,SW,45.71859,-121.608681,N,5,<Null>,<Null>,1937,0,215,26,99.9,2,24,31,0,3.1,9999,0,1,1,0,0,CS,9,5,5,2,A,1,3,1,14,59.03,<Null>,B,19,1,Y,0,2,7,7,7,Good,9,8,0,24,7/18/2023,7/18/2025,35,1,215,32,475,1634,327,1307,3268,2022,<Null>,<Null>,<Null>,<Null>,<Null>,<Null>,<Null>,<Null>,<Null>,<Null>,<Null>,10/16/2023 3:33,0002042A,633,2024
180,Point,0002058A, 14/132,SR 14 OVER RAILROAD,SR 14,SP S RY,Washington State,Washington State,UNINCORPORATED,Skamania County,SW,45.720703,-121.601471,N,5,<Null>,<Null>,1936,0,126,54,99.9,2,24,30.7,0,3.5,9999,2304,4,2,0,0,CTB,3,5,2,2,A,1,3,1,14,59.44,<Null>,B,20,1,Y,0,2,7,7,5,Fair,9,N,0,24,7/18/2023,7/18/2025,35,1,126,31,475,928,186,742,1855,2022,<Null>,<Null>,<Null>,<Null>,<Null>,<Null>,<Null>,<Null>,<Null>,<Null>,<Null>,10/16/2023 3:33,0002058A,634,2024
181,Point,0002059A,  2/45,US 2 OVER RAILROAD,US 2,BNRR,Washington State,Washington State,UNINCORPORATED,Snohomish County,NW,47.802307,-121.515999,N,5,<Null>,<Null>,1936,0,257,77,99.9,2,24,30.5,0,2.7,9999,2811,4,2,0,0,CTB,5,1,2,2,A,1,2,1,2,38.61,<Null>,B,99,1,Y,0,2,3,6,6,Poor,9,N,1,24,4/4/2022,4/4/2024,35,1,257,36,475,2198,440,1758,4395,2022,<Null>,<Null>,<Null>,<Null>,<Null>,<Null>,<Null>,<Null>,<Null>,<Null>,<Null>,10/16/2023 3:33,0002059A,19,2024
182,Point,0002059B, 25/124,SR 25 OVER QUARRY RD,SR 25,QUARRY RD (ABANDONED),Washington State,Washington State,UNINCORPORATED,Stevens County,EA,48.889526,-117.825302,N,5,<Null>,<Null>,1935,0,53,17,48,2,25.7,26.2,0,0,9999,0,2,7,0,0,TTC,3,1,0,2,A,1,3,1,25,110.51,<Null>,B,66,1,Y,0,0,7,6,7,Fair,9,N,0,24,6/14/2022,6/14/2024,35,1,53,28,475,352,70,282,705,2022,<Null>,<Null>,<Null>,<Null>,<Null>,<Null>,<Null>,<Null>,<Null>,<Null>,<Null>,10/16/2023 3:33,0002059B,921,2024
183,Point,0002060A,101/256,BIG QUILCENE RIVER,US 101,BIG QUILCENE RIVER,Washington State,Washington State,UNINCORPORATED,Jefferson County,OL,47.810764,-122.910629,N,3,<Null>,<Null>,1936,0,244,150,99.9,2,24,24,0,3,1703,0,10,3,4,1,STrus CTB,1,5,5,2,A,1,2,1,101,296.65,<Null>,B,99,1,Y,0,0,4,5,6,Poor,9,3,0,24,10/10/2022,10/10/2024,35,1,244,30,475,1738,348,1391,3477,2022,<Null>,<Null>,<Null>,<Null>,<Null>,<Null>,<Null>,<Null>,<Null>,<Null>,<Null>,10/16/2023 3:33,0002060A,74,2024
184,Point,0002102C, 20/924,DAVIS CREEK,SR 20,DAVIS CREEK,Washington State,Washington State,UNINCORPORATED,Pend Oreille County,EA,48.275074,-117.263756,N,5,<Null>,<Null>,1936,0,77,15,72,2,27.5,29,0,0,9999,0,2,7,0,0,TTC,5,1,5,2,A,1,3,1,20,423.75,<Null>,B,8,1,Y,0,0,6,7,5,Fair,9,8,1,24,8/31/2021,9/1/2023,35,1,77,30,475,548,110,439,1097,2022,<Null>,<Null>,<Null>,<Null>,<Null>,<Null>,<Null>,<Null>,<Null>,<Null>,<Null>,10/16/2023 3:33,0002102C,843,2024
185,Point,0002174A,125/10,MILL CR,SR 125,MILL CR,Washington State,Washington State,WALLA WALLA,Walla Walla County,SC,46.0658,-118.349915,N,5,<Null>,<Null>,1936,0,59,53,54,2,36,51.7,6.4,6.4,9999,0,4,1,0,0,CTB,1,5,5,2,A,1,3,1,125,5.54,<Null>,B,5,1,Y,0,0,7,7,7,Good,9,8,3,24,5/9/2023,5/9/2025,35,1,59,38,475,532,106,426,1065,2022,<Null>,<Null>,<Null>,<Null>,<Null>,<Null>,<Null>,<Null>,<Null>,<Null>,<Null>,10/16/2023 3:33,0002174A,615,2024
186,Point,0002214A,108/4,WILDCAT CREEK,SR 108,WILDCAT CREEK,Washington State,Washington State,MCCLEARY,Grays Harbor County,OL,47.055584,-123.278107,N,5,<Null>,<Null>,1936,0,26,20,<Null>,2,29.5,32.5,0,0,9999,0,11,1,0,0,CEFA,1,1,5,0,A,1,3,1,108,0.5,<Null>,B,3,1,Y,0,0,7,6,5,Fair,9,7,2,24,9/27/2021,9/27/2023,35,1,26,34,475,210,42,168,420,2022,<Null>,<Null>,<Null>,<Null>,<Null>,<Null>,<Null>,<Null>,<Null>,<Null>,<Null>,10/16/2023 3:33,0002214A,516,2024
187,Point,0002228G,  2/114,STREAM,US 2,STREAM,Washington State,Washington State,UNINCORPORATED,King County,NW,47.71344,-121.376251,N,5,<Null>,<Null>,1937,0,47,15,42,2,28,30.6,0,0,9999,0,2,7,0,0,TTC,3,1,5,2,A,1,2,1,2,47.91,<Null>,B,6,1,Y,0,2,7,6,6,Fair,9,5,0,24,8/3/2021,8/3/2023,35,1,47,33,400,310,62,248,620,2014,<Null>,<Null>,<Null>,<Null>,<Null>,<Null>,<Null>,<Null>,<Null>,<Null>,<Null>,10/16/2023 3:33,0002228G,12,2024
188,Point,0002236A, 12/61,CLOQUALLUM CREEK,US 12,CLOQUALLUM CREEK,Washington State,Washington State,ELMA,Grays Harbor County,OL,47.004295,-123.387146,N,5,<Null>,<Null>,1937,0,232,81,99.9,2,24,30.5,3.2,0,9999,0,4,2,0,0,CTB,5,5,5,2,A,1,2,1,12,21.37,<Null>,B,14,1,Y,0,0,7,6,7,Fair,9,5,2,24,8/23/2022,8/23/2024,35,1,232,30,475,1653,331,1322,3306,2022,<Null>,<Null>,<Null>,<Null>,<Null>,<Null>,<Null>,<Null>,<Null>,<Null>,<Null>,10/16/2023 3:33,0002236A,593,2024
189,Point,0002236B, 12/64,MOX CHEHALIS CREEK,US 12,MOX CHEHALIS CREEK,Washington State,Washington State,UNINCORPORATED,Grays Harbor County,OL,46.956696,-123.327248,N,5,<Null>,<Null>,1937,0,165,65,99.9,2,24,31,4,0,9999,0,4,2,0,0,CTB,4,5,5,2,A,1,2,1,12,25.8,<Null>,B,14,1,Y,0,0,6,6,6,Fair,9,5,0,24,10/25/2022,10/25/2024,35,1,165,34,475,1332,266,1066,2665,2022,<Null>,<Null>,<Null>,<Null>,<Null>,<Null>,<Null>,<Null>,<Null>,<Null>,<Null>,10/16/2023 3:33,0002236B,597,2024
190,Point,0002236D, 12/68,GIBSON CREEK,US 12,GIBSON CREEK,Washington State,Washington State,UNINCORPORATED,Grays Harbor County,OL,46.902905,-123.291214,N,5,<Null>,<Null>,1937,0,189,75,99.9,2,24,30.3,3.5,0,9999,0,4,2,0,0,CTB,3,5,5,2,A,1,2,1,12,29.93,<Null>,B,18,1,Y,0,0,6,7,7,Fair,9,5,1,24,10/25/2022,10/25/2024,35,1,189,38,475,1706,341,1364,3411,2022,<Null>,<Null>,<Null>,<Null>,<Null>,<Null>,<Null>,<Null>,<Null>,<Null>,<Null>,10/16/2023 3:33,0002236D,602,2024
191,Point,0002241D, 12/630,WOODWARD CR,US 12,WOODWARD CR,Washington State,Washington State,UNINCORPORATED,Walla Walla County,SC,46.052807,-118.615608,N,5,<Null>,<Null>,1919,1937,60,20,55,2,28,35.8,2.8,0,9999,0,11,1,1,1,CEFA CS,1,5,5,2,A,1,2,1,12,322.88,<Null>,B,3,1,Y,0,0,7,7,7,Good,9,5,0,24,3/24/2022,3/24/2024,35,1,60,38,475,542,108,433,1083,2022,<Null>,<Null>,<Null>,<Null>,<Null>,<Null>,<Null>,<Null>,<Null>,<Null>,<Null>,10/16/2023 3:33,0002241D,595,2024
192,Point,0002251A,202/66,S FK SNOQUALMIE R,SR 202,S FK SNOQUALMIE R,Washington State,Washington State,NORTH BEND,King County,NW,47.499584,-121.788719,N,5,<Null>,<Null>,1936,0,453,95,99.9,2,24,29.5,0,3.5,9999,0,3,3,1,2,SG CS,1,5,5,2,A,1,3,1,202,29.5,<Null>,B,5,1,Y,0,0,6,6,5,Fair,9,3,4,24,9/22/2022,9/22/2024,35,1,453,36,475,3873,775,3098,7746,2022,<Null>,<Null>,<Null>,<Null>,<Null>,<Null>,<Null>,<Null>,<Null>,<Null>,<Null>,10/16/2023 3:33,0002251A,419,2024
193,Point,0002293A, 26/285,PALOUSE RIVER BRIDGE,SR 26,PALOUSE RIVER,Washington State,Washington State,UNINCORPORATED,Whitman County,EA,46.890862,-117.375557,N,5,<Null>,<Null>,1937,0,603,88,99.9,2,24,30.8,0,3.5,9999,0,4,2,0,0,CTB,16,5,5,2,A,1,3,1,26,132.94,<Null>,B,3,1,Y,0,0,3,6,5,Poor,9,8,0,24,9/14/2021,9/14/2023,35,1,603,32,400,3859,772,3087,7718,2014,<Null>,<Null>,<Null>,<Null>,<Null>,<Null>,<Null>,<Null>,<Null>,<Null>,<Null>,10/16/2023 3:33,0002293A,57,2024
194,Point,0002295A, 25/132,SHEEP CREEK,SR 25,SHEEP CREEK,Washington State,Washington State,UNINCORPORATED,Stevens County,EA,48.940903,-117.772141,N,5,<Null>,<Null>,1937,0,98,57,95,2,24,30.8,3,0,9999,0,4,2,0,0,CTB,3,5,5,2,A,1,3,1,25,115.44,<Null>,B,99,1,Y,0,0,7,6,6,Fair,9,3,1,24,6/21/2023,6/21/2025,35,1,98,28,475,652,130,521,1303,2022,<Null>,<Null>,<Null>,<Null>,<Null>,<Null>,<Null>,<Null>,<Null>,<Null>,<Null>,10/16/2023 3:33,0002295A,922,2024
195,Point,0002309A, 27/12,N FK PALOUSE R,SR 27,PALOUSE RIVER,Washington State,Washington State,PALOUSE,Whitman County,EA,46.908966,-117.076637,N,5,<Null>,<Null>,1938,0,130,96,99.9,2,24,37.6,3.5,3.5,9999,0,3,3,4,1,SG CTB,1,5,5,2,A,1,3,1,27,15.03,<Null>,B,1,0,N,0,0,6,6,6,Fair,9,5,3,24,5/9/2023,5/9/2025,35,1,130,30,475,922,184,738,1845,2022,<Null>,<Null>,<Null>,<Null>,<Null>,<Null>,<Null>,<Null>,<Null>,<Null>,<Null>,10/16/2023 3:33,0002309A,1752,2024
196,Point,0002311A, 12/12N,WISHKAH RIVER BRIDGE,US 12,WISHKAH RIVER,Washington State,Washington State,ABERDEEN,Grays Harbor County,OL,46.977112,-123.812889,L,5,<Null>,<Null>,1925,2003,363,145,99.9,2,27,28.6,5,5,1505,0,16,3,20,2,BAS STrus CTB CS,1,5,5,2,A,1,2,1,012COABERDN,0.5,<Null>,I,1,1,Y,2,0,7,4,4,Poor,9,U,0,24,3/28/2023,3/28/2025,35,1,363,32,475,2759,552,2207,5518,2022,<Null>,<Null>,<Null>,<Null>,<Null>,<Null>,<Null>,<Null>,<Null>,<Null>,<Null>,10/16/2023 3:33,0002311A,40,2024
197,Point,0002330A,  4/118,WEST FORK SKAMOKAWA CR,SR 4,W FK SKAMOKAWA CR,Washington State,Washington State,UNINCORPORATED,Wahkiakum County,SW,46.289276,-123.467224,N,5,<Null>,<Null>,1938,0,70,17,65,2,24,30.5,3.5,0,9999,0,2,7,0,0,TTC,4,5,5,2,A,1,3,1,4,27.47,<Null>,B,4,1,Y,0,0,6,7,7,Fair,9,8,1,24,4/28/2022,4/28/2024,35,1,70,34,475,565,113,452,1130,2022,<Null>,<Null>,<Null>,<Null>,<Null>,<Null>,<Null>,<Null>,<Null>,<Null>,<Null>,10/16/2023 3:33,0002330A,1006,2024
198,Point,0002331A,  4/110,GRAYS RIVER,SR 4,GRAYS RIVER,Washington State,Washington State,UNINCORPORATED,Wahkiakum County,SW,46.359249,-123.567085,N,3,<Null>,<Null>,1938,0,283,220,99.9,2,24,26,0,3.7,1411,0,10,3,4,1,STrus CTB,1,5,5,2,A,1,3,1,4,19.3,<Null>,B,99,1,Y,0,0,6,5,6,Fair,9,5,1,24,9/22/2022,9/22/2024,35,1,283,30,475,2016,403,1613,4033,2022,<Null>,<Null>,<Null>,<Null>,<Null>,<Null>,<Null>,<Null>,<Null>,<Null>,<Null>,10/16/2023 3:33,0002331A,446,2024
199,Point,0002332A,  2/116,S FK SKYKOMISH RIVER,US 2,S FK SKYKOMISH RIVER,Washington State,Washington State,UNINCORPORATED,King County,NW,47.714169,-121.342003,N,3,<Null>,<Null>,1938,0,339,241,99.9,2,24,25.1,0,3.8,1410,0,10,3,4,1,STrus CTB,1,5,5,2,A,1,2,1,2,49.65,<Null>,B,3,1,Y,0,2,7,6,7,Fair,9,7,0,24,3/15/2022,3/15/2024,35,1,339,32,475,2576,515,2061,5153,2022,<Null>,<Null>,<Null>,<Null>,<Null>,<Null>,<Null>,<Null>,<Null>,<Null>,<Null>,10/16/2023 3:33,0002332A,1747,2024
200,Point,0002340A,  6/11,TRAP CREEK,SR 6,TRAP CREEK,Washington State,Washington State,UNINCORPORATED,Pacific County,SW,46.555759,-123.611389,N,5,<Null>,<Null>,1918,1939,112,40,99.9,2,28,31.3,0,0,9999,0,11,1,1,2,CEFA CS,1,1,5,2,A,1,3,1,6,11.34,<Null>,B,99,1,Y,0,0,7,7,7,Good,9,5,1,24,5/30/2023,6/1/2025,35,1,112,32,475,851,170,681,1702,2022,<Null>,<Null>,<Null>,<Null>,<Null>,<Null>,<Null>,<Null>,<Null>,<Null>,<Null>,10/16/2023 3:33,0002340A,1419,2024
201,Point,0002352A,169/12,SR 169 OVER RAILROAD,SR 169,NP RY,Washington State,Washington State,MAPLE VALLEY,King County,NW,47.346638,-122.018913,N,5,<Null>,<Null>,1939,1989,153,62,99.9,2,40,43,0,0,9999,2209,4,2,0,0,CTB,3,5,2,2,A,1,3,1,169,10.41,<Null>,B,6,1,Y,0,0,6,7,7,Fair,9,N,0,24,5/25/2023,5/25/2025,35,1,153,42,475,1526,305,1221,3052,2022,<Null>,<Null>,<Null>,<Null>,<Null>,<Null>,<Null>,<Null>,<Null>,<Null>,<Null>,10/16/2023 3:33,0002352A,723,2024
202,Point,0002355A, 14/118,ROCK CR,SR 14,ROCK CR,Washington State,Washington State,UNINCORPORATED,Skamania County,SW,45.689762,-121.889137,N,5,<Null>,<Null>,1938,0,200,67,99.9,2,24,31.2,4.3,0,9999,0,4,2,0,0,CTB,5,5,5,2,A,1,3,1,14,43.9,<Null>,B,3,1,Y,0,2,7,7,6,Fair,9,5,0,24,4/5/2022,4/5/2024,35,1,200,33,475,1568,314,1254,3135,2022,<Null>,<Null>,<Null>,<Null>,<Null>,<Null>,<Null>,<Null>,<Null>,<Null>,<Null>,10/16/2023 3:33,0002355A,630,2024
203,Point,0002385A, 26/275,UNION FLAT CREEK,SR 26,UNION FLAT CREEK,Washington State,Washington State,UNINCORPORATED,Whitman County,EA,46.832443,-117.510361,N,5,<Null>,<Null>,1938,1989,190,70,99.9,2,32.4,35.4,0,0,9999,0,4,2,0,0,CTB,5,1,5,2,A,1,3,1,26,124.94,<Null>,B,8,1,Y,0,0,7,7,7,Good,9,8,0,24,3/21/2023,3/21/2025,35,1,190,40,475,1805,361,1444,3610,2022,<Null>,<Null>,<Null>,<Null>,<Null>,<Null>,<Null>,<Null>,<Null>,<Null>,<Null>,10/16/2023 3:33,0002385A,926,2024
204,Point,0002385B, 26/2SP,N FK PALOUSE R WEST WYE,SR 26 SPUR,PALOUSE RIVER,Washington State,Washington State,COLFAX,Whitman County,EA,46.890152,-117.364594,N,5,<Null>,<Null>,1938,0,114,56,99.9,2,26,32.5,0.5,4,9999,0,4,1,0,0,CTB,2,5,5,2,A,1,3,4,026SPCOLFAX,133.47,<Null>,B,0,1,Y,0,0,5,4,4,Poor,9,8,3,12,7/25/2023,7/25/2024,35,1,114,32,475,866,173,693,1733,2022,<Null>,<Null>,<Null>,<Null>,<Null>,<Null>,<Null>,<Null>,<Null>,<Null>,<Null>,10/16/2023 3:33,0002385B,121,2024
205,Point,0002395A, 28/121,CRAB CREEK,SR 28,CRAB CREEK,Washington State,Washington State,UNINCORPORATED,Grant County,NC,47.427387,-119.273972,N,5,<Null>,<Null>,1939,0,200,68,99.9,2,24,30,0,4.3,9999,0,4,2,0,0,CTB,5,5,5,2,A,1,3,1,28,63.39,<Null>,B,2,1,Y,0,0,8,6,6,Fair,9,5,1,24,9/21/2021,9/21/2023,35,1,200,38,400,1520,304,1216,3040,2014,<Null>,<Null>,<Null>,<Null>,<Null>,<Null>,<Null>,<Null>,<Null>,<Null>,<Null>,10/16/2023 3:33,0002395A,955,2024
206,Point,0002396A,101/308,CALAWAH RIVER,US 101,CALAWAH RIVER,Washington State,Washington State,FORKS,Clallam County,OL,47.95961,-124.392746,N,5,<Null>,<Null>,1938,0,264,170,99.9,2,24,26,0,5.8,1409,0,10,3,4,1,STrus CTB,1,5,5,2,A,1,2,1,101,192.36,<Null>,B,99,1,Y,0,0,6,5,6,Fair,9,8,2,24,3/22/2023,3/22/2025,35,1,264,39,475,2446,489,1956,4891,2022,<Null>,<Null>,<Null>,<Null>,<Null>,<Null>,<Null>,<Null>,<Null>,<Null>,<Null>,10/16/2023 3:33,0002396A,479,2024
207,Point,0002397A,  2/115A,JOHN GLICK HENRY MEM BR,5TH ST N,S FK SKYKOMISH RIVER,Washington State,Washington State,SKYKOMISH,King County,NW,47.710339,-121.360939,N,3,<Null>,<Null>,1939,0,279,220,99.9,2,24,25.1,6,0,1500,0,10,3,4,1,STrus CTB,1,5,5,2,A,1,5,1,420006240,0.16,<Null>,B,3,0,N,0,2,6,6,6,Fair,9,8,2,24,4/6/2022,4/6/2024,35,1,279,30,475,1988,398,1590,3976,2022,<Null>,<Null>,<Null>,<Null>,<Null>,<Null>,<Null>,<Null>,<Null>,<Null>,<Null>,10/16/2023 3:33,0002397A,778,2024
208,Point,0002425A,542/38,HALF BRIDGE,SR 542,SLIDE AREA,Washington State,Washington State,UNINCORPORATED,Whatcom County,NW,48.911388,-121.760475,N,5,<Null>,<Null>,1938,0,102,31,97,2,34,22.2,0,0,9999,0,2,7,0,0,TTC,4,1,0,2,A,1,3,1,542,43.2,<Null>,B,99,0,Y,0,2,8,7,6,Fair,9,N,0,24,4/25/2023,4/25/2025,35,1,102,36,475,872,174,698,1744,2022,<Null>,<Null>,<Null>,<Null>,<Null>,<Null>,<Null>,<Null>,<Null>,<Null>,<Null>,10/16/2023 3:33,0002425A,1402,2024
209,Point,0002442A,  7/10,E FK TILTON RIVER,SR 7,S FK TILTON RIVER,Washington State,Washington State,UNINCORPORATED,Lewis County,SW,46.58839,-122.242584,N,5,<Null>,<Null>,1938,0,200,80,99.9,2,24,29.5,3.5,0,9999,0,4,2,0,0,CTB,5,5,5,2,A,1,3,1,7,3.26,<Null>,B,25,1,Y,0,0,3,6,7,Poor,9,5,2,24,8/14/2023,8/14/2025,35,1,200,32,475,1520,304,1216,3040,2022,<Null>,<Null>,<Null>,<Null>,<Null>,<Null>,<Null>,<Null>,<Null>,<Null>,<Null>,10/16/2023 3:33,0002442A,29,2024
210,Point,0002450A,153/10,METHOW RIVER,SR 153,METHOW RIVER,Washington State,Washington State,UNINCORPORATED,Okanogan County,NC,48.137833,-120.015228,N,5,<Null>,<Null>,1939,0,476,80,99.9,2,24,30.9,0,3.5,9999,0,4,2,0,0,CTB,9,5,5,2,A,1,3,1,153,11.83,<Null>,B,23,1,Y,0,0,3,6,5,Poor,9,3,1,24,10/5/2021,10/5/2023,35,1,476,30,475,3392,678,2713,6783,2022,<Null>,<Null>,<Null>,<Null>,<Null>,<Null>,<Null>,<Null>,<Null>,<Null>,<Null>,10/16/2023 3:33,0002450A,85,2024
211,Point,0002450B,153/13,METHOW RIVER,SR 153,METHOW RIVER,Washington State,Washington State,UNINCORPORATED,Okanogan County,NC,48.145771,-120.046516,N,5,<Null>,<Null>,1939,0,415,80,99.9,2,24,30.9,0,3.5,9999,0,4,2,0,0,CTB,7,5,5,2,A,1,3,1,153,13.45,<Null>,B,39,1,Y,0,0,3,7,5,Poor,9,7,2,24,10/5/2021,10/5/2023,35,1,415,30,475,2957,591,2366,5914,2022,<Null>,<Null>,<Null>,<Null>,<Null>,<Null>,<Null>,<Null>,<Null>,<Null>,<Null>,10/16/2023 3:33,0002450B,86,2024
212,Point,0002450C,153/14,METHOW RIVER,SR 153,METHOW RIVER,Washington State,Washington State,UNINCORPORATED,Okanogan County,NC,48.151024,-120.05526,N,5,<Null>,<Null>,1939,0,350,80,99.9,2,24,30.9,0,3.5,9999,0,4,2,0,0,CTB,7,5,5,2,A,1,3,1,153,14,<Null>,B,39,1,Y,0,0,3,5,6,Poor,9,3,1,24,10/5/2021,10/5/2023,35,1,350,30,475,2494,499,1995,4988,2022,<Null>,<Null>,<Null>,<Null>,<Null>,<Null>,<Null>,<Null>,<Null>,<Null>,<Null>,10/16/2023 3:33,0002450C,87,2024
213,Point,0002450D,153/15,METHOW RIVER,SR 153,METHOW RIVER,Washington State,Washington State,UNINCORPORATED,Okanogan County,NC,48.165535,-120.078598,N,5,<Null>,<Null>,1939,0,302,80,99.9,2,24,30.9,0,3.5,9999,0,4,2,0,0,CTB,5,5,5,2,A,1,3,1,153,15.51,<Null>,B,39,1,Y,0,0,3,6,5,Poor,9,5,1,24,10/5/2021,10/5/2023,35,1,302,30,475,2152,430,1722,4304,2022,<Null>,<Null>,<Null>,<Null>,<Null>,<Null>,<Null>,<Null>,<Null>,<Null>,<Null>,10/16/2023 3:33,0002450D,88,2024
214,Point,0002457A,  4/120,SKAMOKAWA CREEK,SR 4,SKAMOKAWA CREEK,Washington State,Washington State,UNINCORPORATED,Wahkiakum County,SW,46.27039,-123.456718,N,3,<Null>,<Null>,1939,0,239,93,99.9,2,24,24.9,3,3,9999,0,3,3,2,7,SG CTB TTC,2,5,5,2,A,1,3,1,4,28.92,<Null>,B,6,1,Y,0,0,6,5,6,Fair,9,5,2,24,4/28/2022,4/28/2024,35,1,239,30,475,1703,341,1362,3406,2022,<Null>,<Null>,<Null>,<Null>,<Null>,<Null>,<Null>,<Null>,<Null>,<Null>,<Null>,10/16/2023 3:33,0002457A,293,2024
215,Point,0002473A,  5/36E,E FORK LEWIS RIVER,I-5,E FORK LEWIS RIVER,Washington State,Washington State,UNINCORPORATED,Clark County,SW,45.871723,-122.710136,R,5,<Null>,<Null>,1939,0,852,248,99.9,3,48,49,4,4,1500,1607,10,3,4,2,STrus CTB,1,5,6,2,P,1,1,1,5,18.21,<Null>,I,1,1,Y,1,0,6,4,6,Poor,9,3,0,24,8/2/2021,8/2/2023,35,1,852,54,475,10927,2185,8742,21854,2022,<Null>,<Null>,<Null>,<Null>,<Null>,<Null>,<Null>,<Null>,<Null>,<Null>,<Null>,10/16/2023 3:33,0002473A,165,2024
